[
    {
        "title": "Cukrárna Závodská",
        "totalScore": 4.6,
        "reviewsCount": 81,
        "street": "Gutova 108",
        "city": "Strašnice",
        "state": null,
        "countryCode": "CZ",
        "website": "https://www.cukrarnazavodska.cz/",
        "phone": "+420 724 680 554",
        "categoryName": "Kavárna",
        "url": "https://www.google.com/maps/place/Cukr%C3%A1rna+Z%C3%A1vodsk%C3%A1/@50.0699806,14.4883775,17z/data=!3m1!4b1!4m6!3m5!1s0x470b9328c800c0fd:0xcb153d8ad208edf0!8m2!3d50.0699806!4d14.4883775!16s%2Fg%2F11q2r04n_k?hl=cs&entry=ttu",
        "latitude": 50.0699806,
        "longitude": 14.4883775
    },
    {
        "title": "Cukrárna Slámovka",
        "totalScore": 4.1,
        "reviewsCount": 50,
        "street": "Na Okraji 46a",
        "city": "Praha 6",
        "state": null,
        "countryCode": "CZ",
        "website": "https://www.slamovka.com/",
        "phone": "+420 221 228 430",
        "categoryName": "Cukrárna",
        "url": "https://www.google.com/maps/place/Cukr%C3%A1rna+Sl%C3%A1movka/@50.0898743,14.3436124,17z/data=!3m1!4b1!4m6!3m5!1s0x470bbf40906541bb:0xfc2dc5d067bc30f6!8m2!3d50.0898743!4d14.3436124!16s%2Fg%2F11h5mlbz3_?hl=cs&entry=ttu",
        "latitude": 50.0898743,
        "longitude": 14.3436124
    },
    {
        "title": "Cukrárna Parník",
        "totalScore": 5,
        "reviewsCount": 5,
        "street": "Gen. Janouška 902/17",
        "city": "Praha 14-Černý Most",
        "state": null,
        "countryCode": "CZ",
        "website": "http://www.poliklinikaparnik.cz/lah-dky,-cukrarna.html",
        "phone": null,
        "categoryName": "Cukrárna",
        "url": "https://www.google.com/maps/place/Cukr%C3%A1rna+Parn%C3%ADk/@50.1070034,14.5721021,17z/data=!3m1!4b1!4m6!3m5!1s0x470bed6667cc3f4f:0x37e0870e952ad742!8m2!3d50.1070034!4d14.5721021!16s%2Fg%2F11j01d0gdb?hl=cs&entry=ttu",
        "latitude": 50.1070034,
        "longitude": 14.5721021
    },
    {
        "title": "Rodinná cukrárna a herna Skibi",
        "totalScore": 4.5,
        "reviewsCount": 11,
        "street": "Budějovická 1667/64",
        "city": "Praha 4",
        "state": null,
        "countryCode": "CZ",
        "website": "http://cukrarna-skibi.cz/",
        "phone": "+420 222 367 724",
        "categoryName": "Cukrárna",
        "url": "https://www.google.com/maps/place/Rodinn%C3%A1+cukr%C3%A1rna+a+herna+Skibi/@50.0437773,14.4491012,17z/data=!3m1!4b1!4m6!3m5!1s0x470b935db9b601af:0x60c6e9612db654ca!8m2!3d50.0437773!4d14.4491012!16s%2Fg%2F11tf53lg1m?hl=cs&entry=ttu",
        "latitude": 50.0437773,
        "longitude": 14.4491012
    },
    {
        "title": "Cukrárna Hanny",
        "totalScore": 3.2,
        "reviewsCount": 72,
        "street": "nám. Osvoboditelů 1372",
        "city": "Praha 16",
        "state": null,
        "countryCode": "CZ",
        "website": "https://www.cukrarnahanny.cz/",
        "phone": "+420 257 810 497",
        "categoryName": "Prodejna zákusků",
        "url": "https://www.google.com/maps/place/Cukr%C3%A1rna+Hanny/@49.9842638,14.3592184,17z/data=!3m1!4b1!4m6!3m5!1s0x470b9705635810f9:0xda2017735d2fb96!8m2!3d49.9842638!4d14.3592184!16s%2Fg%2F1v5k1qsp?hl=cs&entry=ttu",
        "latitude": 49.9842638,
        "longitude": 14.3592184
    },
    {
        "title": "Werichova vila by IF",
        "totalScore": 4.4,
        "reviewsCount": 1430,
        "street": "7, U Sovových mlýnů 501",
        "city": "Malá Strana",
        "state": null,
        "countryCode": "CZ",
        "website": "https://www.instagram.com/fabesovaiveta/",
        "phone": "+420 608 459 547",
        "categoryName": "Cukrárna",
        "url": "https://www.google.com/maps/place/Werichova+vila+by+IF/@50.0853844,14.4080627,17z/data=!3m1!4b1!4m6!3m5!1s0x470b94e47d20e359:0x2505ca0b59bc5a59!8m2!3d50.0853844!4d14.4080627!16s%2Fg%2F11g8wpbv14?hl=cs&entry=ttu",
        "latitude": 50.0853844,
        "longitude": 14.4080627
    },
    {
        "title": "Cukrárna a lahůdky Vrážská",
        "totalScore": 3.8,
        "reviewsCount": 33,
        "street": "Vrážská 463/6",
        "city": "Radotín",
        "state": null,
        "countryCode": "CZ",
        "website": "https://www.cukrarna-panda.cz/",
        "phone": "+420 257 811 425",
        "categoryName": "Cukrárna",
        "url": "https://www.google.com/maps/place/Cukr%C3%A1rna+a+lah%C5%AFdky+Vr%C3%A1%C5%BEsk%C3%A1/@49.9852356,14.3642238,17z/data=!3m1!4b1!4m6!3m5!1s0x470b971ae812194d:0x13020ac8e9ea71de!8m2!3d49.9852356!4d14.3642238!16s%2Fg%2F1vd700yt?hl=cs&entry=ttu",
        "latitude": 49.9852356,
        "longitude": 14.3642238
    },
    {
        "title": "Cukrárna",
        "totalScore": 2.3,
        "reviewsCount": 3,
        "street": "Havlíčkova 6",
        "city": "Nové Město",
        "state": null,
        "countryCode": "CZ",
        "website": null,
        "phone": null,
        "categoryName": "Pekařství",
        "url": "https://www.google.com/maps/place/Cukr%C3%A1rna/@50.0891206,14.4326965,17z/data=!3m1!4b1!4m6!3m5!1s0x470b959b13612193:0x7afcfbb96bd08975!8m2!3d50.0891206!4d14.4326965!16s%2Fg%2F11shlm37wx?hl=cs&entry=ttu",
        "latitude": 50.0891206,
        "longitude": 14.4326965
    },
    {
        "title": "Cukrárna Na Pěšině",
        "totalScore": 4.5,
        "reviewsCount": 500,
        "street": "Spořická 314/42",
        "city": "Praha-Dolní Chabry",
        "state": null,
        "countryCode": "CZ",
        "website": "http://www.napesine.cz/",
        "phone": "+420 731 447 713",
        "categoryName": "Cukrárna",
        "url": "https://www.google.com/maps/place/Cukr%C3%A1rna+Na+P%C4%9B%C5%A1in%C4%9B/@50.1460249,14.4476757,17z/data=!3m1!4b1!4m6!3m5!1s0x470beb0f1d8117fd:0xd248c257070dc61a!8m2!3d50.1460249!4d14.4476757!16s%2Fg%2F12mkw9bp_?hl=cs&entry=ttu",
        "latitude": 50.1460249,
        "longitude": 14.4476757
    },
    {
        "title": "Bistro Eva - Uni Cukrárna",
        "totalScore": 4.6,
        "reviewsCount": 29,
        "street": "Vršovická 34",
        "city": "Praha 10-Vršovice",
        "state": null,
        "countryCode": "CZ",
        "website": null,
        "phone": "+420 271 746 348",
        "categoryName": "Prodejna zákusků",
        "url": "https://www.google.com/maps/place/Bistro+Eva+-+Uni+Cukr%C3%A1rna/@50.0658617,14.4527687,17z/data=!3m1!4b1!4m6!3m5!1s0x470b9378be4016ed:0x7f319bb85ebc3e3c!8m2!3d50.0658617!4d14.4527687!16s%2Fg%2F1hc36rn4r?hl=cs&entry=ttu",
        "latitude": 50.0658617,
        "longitude": 14.4527687
    },
    {
        "title": "Tichá cukrárna",
        "totalScore": 5,
        "reviewsCount": 1,
        "street": "Bínova 534/12",
        "city": "Praha 8-Střížkov",
        "state": null,
        "countryCode": "CZ",
        "website": "http://www.tichacukrarna.cz/",
        "phone": "+420 725 451 856",
        "categoryName": "Cukrárna",
        "url": "https://www.google.com/maps/place/Tich%C3%A1+cukr%C3%A1rna/@50.1306804,14.4807586,17z/data=!3m1!4b1!4m6!3m5!1s0x470bebc9ca8e0d43:0x64f1ac781edae521!8m2!3d50.1306804!4d14.4807586!16s%2Fg%2F11hdjvs2sf?hl=cs&entry=ttu",
        "latitude": 50.1306804,
        "longitude": 14.4807586
    },
    {
        "title": "Pekárna & cukrárna Marcipánka",
        "totalScore": 4.5,
        "reviewsCount": 117,
        "street": "Mladoboleslavská 8",
        "city": "Praha-Vinoř",
        "state": null,
        "countryCode": "CZ",
        "website": "http://www.marcipanka.cz/",
        "phone": "+420 603 410 006",
        "categoryName": "Cukrárna",
        "url": "https://www.google.com/maps/place/Pek%C3%A1rna+%26+cukr%C3%A1rna+Marcip%C3%A1nka/@50.1437349,14.579081,17z/data=!3m1!4b1!4m6!3m5!1s0x470bed981442f893:0xe37e810b81729e86!8m2!3d50.1437349!4d14.579081!16s%2Fg%2F1td758_w?hl=cs&entry=ttu",
        "latitude": 50.1437349,
        "longitude": 14.579081
    },
    {
        "title": "Cukrárna U Háje",
        "totalScore": 4.6,
        "reviewsCount": 288,
        "street": "Hovorčovická 28",
        "city": "Praha 8",
        "state": null,
        "countryCode": "CZ",
        "website": "http://www.cukrarnauhaje.cz/",
        "phone": "+420 284 685 169",
        "categoryName": "Prodejna zákusků",
        "url": "https://www.google.com/maps/place/Cukr%C3%A1rna+U+H%C3%A1je/@50.1301261,14.444759,17z/data=!3m1!4b1!4m6!3m5!1s0x470beb3dfdb5d235:0x8b8217448a848c9a!8m2!3d50.1301261!4d14.444759!16s%2Fg%2F1trxcdvv?hl=cs&entry=ttu",
        "latitude": 50.1301261,
        "longitude": 14.444759
    },
    {
        "title": "Au Gourmand",
        "totalScore": 4.1,
        "reviewsCount": 1192,
        "street": "Dlouhá 614/10",
        "city": "Staré Město",
        "state": null,
        "countryCode": "CZ",
        "website": "http://augourmand.cz/",
        "phone": "+420 602 305 181",
        "categoryName": "Francouzská cukrárna",
        "url": "https://www.google.com/maps/place/Au+Gourmand/@50.0890786,14.4223662,17z/data=!3m1!4b1!4m6!3m5!1s0x470b94e999a7f787:0xa781802f0790ed64!8m2!3d50.0890786!4d14.4223662!16s%2Fg%2F1tm09jc2?hl=cs&entry=ttu",
        "latitude": 50.0890786,
        "longitude": 14.4223662
    },
    {
        "title": "cukrárna Eliška",
        "totalScore": null,
        "reviewsCount": 0,
        "street": "Bubenské nábř. 306/13",
        "city": "Praha 7-Holešovice",
        "state": null,
        "countryCode": "CZ",
        "website": null,
        "phone": null,
        "categoryName": "Cukrárna",
        "url": "https://www.google.com/maps/place/cukr%C3%A1rna+Eli%C5%A1ka/@50.0992827,14.4466674,17z/data=!3m1!4b1!4m6!3m5!1s0x470b94b0854ed291:0x969476c97d0fc536!8m2!3d50.0992827!4d14.4466674!16s%2Fg%2F11b6vb_chp?hl=cs&entry=ttu",
        "latitude": 50.0992827,
        "longitude": 14.4466674
    },
    {
        "title": "Cukrárna Anděl",
        "totalScore": 4.6,
        "reviewsCount": 31,
        "street": "Trousilova 1064",
        "city": "Praha 8-Kobylisy",
        "state": null,
        "countryCode": "CZ",
        "website": "http://www.andelback.cz/",
        "phone": "+420 233 557 744",
        "categoryName": "Cukrárna",
        "url": "https://www.google.com/maps/place/Cukr%C3%A1rna+And%C4%9Bl/@50.1272626,14.450685,17z/data=!3m1!4b1!4m6!3m5!1s0x470beb3fca2f4dc7:0xcb17628b5b375f07!8m2!3d50.1272626!4d14.450685!16s%2Fg%2F11c55vvz5h?hl=cs&entry=ttu",
        "latitude": 50.1272626,
        "longitude": 14.450685
    },
    {
        "title": "C&P U Bohemky",
        "totalScore": 4.7,
        "reviewsCount": 10,
        "street": "Vršovická 44",
        "city": "Praha 10-Vršovice",
        "state": null,
        "countryCode": "CZ",
        "website": null,
        "phone": "+420 775 621 962",
        "categoryName": "Cukrárna",
        "url": "https://www.google.com/maps/place/C%26P+U+Bohemky/@50.0663269,14.4562599,17z/data=!3m1!4b1!4m6!3m5!1s0x470b93633307e399:0x2516b6de1352a6d5!8m2!3d50.0663269!4d14.4562599!16s%2Fg%2F11pb0vsqxh?hl=cs&entry=ttu",
        "latitude": 50.0663269,
        "longitude": 14.4562599
    },
    {
        "title": "CUKRÁRNA Buchalovi",
        "totalScore": 4.6,
        "reviewsCount": 230,
        "street": "U Červeného mlýnku 977/2 Čakovice Praha 9 CZ",
        "city": "Praha 9",
        "state": null,
        "countryCode": "CZ",
        "website": "https://www.cukrarna-buchalovi.cz/",
        "phone": "+420 606 349 735",
        "categoryName": "Cukrárna",
        "url": "https://www.google.com/maps/place/CUKR%C3%81RNA+Buchalovi/@50.1502659,14.4982107,17z/data=!3m1!4b1!4m6!3m5!1s0x470b923d4e541001:0x9eb26c1b55cb18a5!8m2!3d50.1502659!4d14.4982107!16s%2Fg%2F11bc7rvy8t?hl=cs&entry=ttu",
        "latitude": 50.1502659,
        "longitude": 14.4982107
    },
    {
        "title": "Cukrárna a kavárna 9999",
        "totalScore": 4.6,
        "reviewsCount": 16,
        "street": "Komořanská 2065/9",
        "city": "Praha 12-Modřany",
        "state": null,
        "countryCode": "CZ",
        "website": "https://www.cukrarnakavarna9999.cz/",
        "phone": "+420 606 054 964",
        "categoryName": "Cukrárna",
        "url": "https://www.google.com/maps/place/Cukr%C3%A1rna+a+kav%C3%A1rna+9999/@50.0036741,14.4051949,17z/data=!3m1!4b1!4m6!3m5!1s0x470b97c77737d5b7:0xdccecc8c2a65f1f6!8m2!3d50.0036741!4d14.4051949!16s%2Fg%2F11s7z7qpr2?hl=cs&entry=ttu",
        "latitude": 50.0036741,
        "longitude": 14.4051949
    },
    {
        "title": "Cukrárna",
        "totalScore": null,
        "reviewsCount": 0,
        "street": "Budějovická 409",
        "city": "Praha 4",
        "state": null,
        "countryCode": "CZ",
        "website": null,
        "phone": "+31 6 37928738",
        "categoryName": "Cukrárna",
        "url": "https://www.google.com/maps/place/Cukr%C3%A1rna/@50.0495799,14.4422758,17z/data=!3m1!4b1!4m6!3m5!1s0x470b93429e839e63:0x5670e0a41a909918!8m2!3d50.0495799!4d14.4422758!16s%2Fg%2F11l2xvhnvt?hl=cs&entry=ttu",
        "latitude": 50.0495799,
        "longitude": 14.4422758
    },
    {
        "title": "Cukrárna",
        "totalScore": null,
        "reviewsCount": 0,
        "street": "Vršovická 866/3",
        "city": "Praha 10-Vršovice",
        "state": null,
        "countryCode": "CZ",
        "website": null,
        "phone": "+31 6 37887420",
        "categoryName": "Cukrárna",
        "url": "https://www.google.com/maps/place/Cukr%C3%A1rna/@50.0662176,14.449342,17z/data=!3m1!4b1!4m6!3m5!1s0x470b938d028b8269:0x78c57b03c159866!8m2!3d50.0662176!4d14.449342!16s%2Fg%2F11vf1kggww?hl=cs&entry=ttu",
        "latitude": 50.0662176,
        "longitude": 14.449342
    },
    {
        "title": "Cukrárna Dana",
        "totalScore": null,
        "reviewsCount": 0,
        "street": "Křižíkova 76",
        "city": "Praha 8-Karlín",
        "state": null,
        "countryCode": "CZ",
        "website": null,
        "phone": null,
        "categoryName": "Pekařství",
        "url": "https://www.google.com/maps/place/Cukr%C3%A1rna+Dana/@50.0923946,14.4498061,17z/data=!3m1!4b1!4m6!3m5!1s0x470b94a3661e51ef:0x77499bda388d9c4e!8m2!3d50.0923946!4d14.4498061!16s%2Fg%2F11b6v3nlmk?hl=cs&entry=ttu",
        "latitude": 50.0923946,
        "longitude": 14.4498061
    },
    {
        "title": "Pekárna a cukrárna Hořovice",
        "totalScore": 4.1,
        "reviewsCount": 44,
        "street": "Čestmírova",
        "city": "Praha 4-Nusle",
        "state": null,
        "countryCode": "CZ",
        "website": "http://www.pekarnahorovice.cz/",
        "phone": "+420 604 557 193",
        "categoryName": "Pekařství",
        "url": "https://www.google.com/maps/place/Pek%C3%A1rna+a+cukr%C3%A1rna+Ho%C5%99ovice/@50.0641597,14.4407213,17z/data=!3m1!4b1!4m6!3m5!1s0x470b947e98c35227:0xaaa15786dc20e50a!8m2!3d50.0641597!4d14.4407213!16s%2Fg%2F11bwm6dmnx?hl=cs&entry=ttu",
        "latitude": 50.0641597,
        "longitude": 14.4407213
    },
    {
        "title": "Cukrárna mléčný bar",
        "totalScore": 4,
        "reviewsCount": 3,
        "street": "Na Poříčí 1061",
        "city": "Petrská čtvrť",
        "state": null,
        "countryCode": "CZ",
        "website": null,
        "phone": null,
        "categoryName": "Prodej zmrzliny",
        "url": "https://www.google.com/maps/place/Cukr%C3%A1rna+ml%C3%A9%C4%8Dn%C3%BD+bar/@50.0904845,14.4358569,17z/data=!3m1!4b1!4m6!3m5!1s0x470b94be339eac17:0x2c72876304402029!8m2!3d50.0904845!4d14.4358569!16s%2Fg%2F11b6vcjqsk?hl=cs&entry=ttu",
        "latitude": 50.0904845,
        "longitude": 14.4358569
    },
    {
        "title": "Lahůdky a cukrárna U Přátel",
        "totalScore": 4.7,
        "reviewsCount": 45,
        "street": "Šimůnkova 1625/1",
        "city": "Praha 8-Kobylisy",
        "state": null,
        "countryCode": "CZ",
        "website": "https://www.lahudky-cukrarna.cz/praha/kontakt",
        "phone": "+420 606 527 758",
        "categoryName": "Cukrárna",
        "url": "https://www.google.com/maps/place/Lah%C5%AFdky+a+cukr%C3%A1rna+U+P%C5%99%C3%A1tel/@50.1329923,14.4703647,17z/data=!3m1!4b1!4m6!3m5!1s0x470beb65e5e22b0d:0xa9fd3494cc88ecea!8m2!3d50.1329923!4d14.4703647!16s%2Fg%2F11hzvcnzw9?hl=cs&entry=ttu",
        "latitude": 50.1329923,
        "longitude": 14.4703647
    },
    {
        "title": "Cukrárny",
        "totalScore": 1,
        "reviewsCount": 1,
        "street": "Revoluční 1634/12",
        "city": "Staré Město",
        "state": null,
        "countryCode": "CZ",
        "website": null,
        "phone": null,
        "categoryName": null,
        "url": "https://www.google.com/maps/place/Cukr%C3%A1rny/@50.0896285,14.4258919,17z/data=!3m1!4b1!4m6!3m5!1s0x470b94ea7f9759b7:0x91b541b00faa32a3!8m2!3d50.0896285!4d14.4258919!16s%2Fg%2F11fsmt197g?hl=cs&entry=ttu",
        "latitude": 50.0896285,
        "longitude": 14.4258919
    },
    {
        "title": "Cukrárna U Nováků",
        "totalScore": 4.2,
        "reviewsCount": 34,
        "street": "Klapkova 42",
        "city": "Praha 8",
        "state": null,
        "countryCode": "CZ",
        "website": "http://www.cukrarnaunovaku.cz/",
        "phone": "+420 284 690 817",
        "categoryName": "Cukrárna",
        "url": "https://www.google.com/maps/place/Cukr%C3%A1rna+U+Nov%C3%A1k%C5%AF/@50.1223632,14.45562,17z/data=!3m1!4b1!4m6!3m5!1s0x470beb469ecebf3d:0x2cb74876802de4cf!8m2!3d50.1223632!4d14.45562!16s%2Fg%2F11b6v8nhf8?hl=cs&entry=ttu",
        "latitude": 50.1223632,
        "longitude": 14.45562
    },
    {
        "title": "Cukrárna",
        "totalScore": null,
        "reviewsCount": 0,
        "street": "Dlouhá 736/23",
        "city": "Staré Město",
        "state": null,
        "countryCode": "CZ",
        "website": null,
        "phone": null,
        "categoryName": "Obchod s potravinami",
        "url": "https://www.google.com/maps/place/Cukr%C3%A1rna/@50.0902736,14.424581,17z/data=!3m1!4b1!4m6!3m5!1s0x470b958ecbbe668f:0xb07c2f53975e543f!8m2!3d50.0902736!4d14.424581!16s%2Fg%2F11rhvt43g7?hl=cs&entry=ttu",
        "latitude": 50.0902736,
        "longitude": 14.424581
    },
    {
        "title": "Q.B. Cukrárna",
        "totalScore": null,
        "reviewsCount": 0,
        "street": "Legerova 1820",
        "city": "Nové Město",
        "state": null,
        "countryCode": "CZ",
        "website": null,
        "phone": null,
        "categoryName": "Pekařství",
        "url": "https://www.google.com/maps/place/Q.B.+Cukr%C3%A1rna/@50.0738858,14.4301901,17z/data=!3m1!4b1!4m6!3m5!1s0x470b948be35283a1:0x172b7b9c73cf8903!8m2!3d50.0738858!4d14.4301901!16s%2Fg%2F11b6vdvp3x?hl=cs&entry=ttu",
        "latitude": 50.0738858,
        "longitude": 14.4301901
    },
    {
        "title": "Lahůdky a cukrárna Hodkovičky",
        "totalScore": 4.9,
        "reviewsCount": 10,
        "street": "Na Lysinách 460/28",
        "city": "Praha 4-Hodkovičky",
        "state": null,
        "countryCode": "CZ",
        "website": "http://www.cukrarnahodkovicky.cz/",
        "phone": "+420 723 199 789",
        "categoryName": "Cukrárna",
        "url": "https://www.google.com/maps/place/Lah%C5%AFdky+a+cukr%C3%A1rna+Hodkovi%C4%8Dky/@50.022196,14.4127314,17z/data=!3m1!4b1!4m6!3m5!1s0x470b97e3f3536421:0xa277d01838498261!8m2!3d50.022196!4d14.4127314!16s%2Fg%2F11t_lrstl_?hl=cs&entry=ttu",
        "latitude": 50.022196,
        "longitude": 14.4127314
    },
    {
        "title": "Kavárna a Cukrárna Alenka v říši divů",
        "totalScore": 4.8,
        "reviewsCount": 162,
        "street": "Lindleyova 4",
        "city": "Praha 6-Podbaba",
        "state": null,
        "countryCode": "CZ",
        "website": "https://www.instagram.com/kavarna_alenka_v_risi_divu/",
        "phone": "+420 774 282 540",
        "categoryName": "Kavárna",
        "url": "https://www.google.com/maps/place/Kav%C3%A1rna+a+Cukr%C3%A1rna+Alenka+v+%C5%99%C3%AD%C5%A1i+div%C5%AF/@50.1123912,14.3911897,17z/data=!3m1!4b1!4m6!3m5!1s0x470b948486d0f657:0x3bf467a47dd61ebd!8m2!3d50.1123912!4d14.3911897!16s%2Fg%2F11g6925597?hl=cs&entry=ttu",
        "latitude": 50.1123912,
        "longitude": 14.3911897
    },
    {
        "title": "Cukrárna U Školy",
        "totalScore": 4.5,
        "reviewsCount": 132,
        "street": "Modřanská 10/608/10",
        "city": "Modřany, Praha 4 – Modřany-Praha 12",
        "state": null,
        "countryCode": "CZ",
        "website": "http://www.cukrarnauskoly.cz/",
        "phone": "+420 777 920 382",
        "categoryName": "Cukrárna",
        "url": "https://www.google.com/maps/place/Cukr%C3%A1rna+U+%C5%A0koly/@50.0068641,14.404233,17z/data=!3m1!4b1!4m6!3m5!1s0x470b96c8897aa8cd:0x87424fb7dafb10aa!8m2!3d50.0068641!4d14.404233!16s%2Fg%2F1vppr7bp?hl=cs&entry=ttu",
        "latitude": 50.0068641,
        "longitude": 14.404233
    },
    {
        "title": "Staročeská pekárna - cukrárna",
        "totalScore": 4.3,
        "reviewsCount": 136,
        "street": "Perlová 8",
        "city": "Staré Město",
        "state": null,
        "countryCode": "CZ",
        "website": null,
        "phone": "+420 224 263 168",
        "categoryName": "Pekařství",
        "url": "https://www.google.com/maps/place/Staro%C4%8Desk%C3%A1+pek%C3%A1rna+-+cukr%C3%A1rna/@50.0834225,14.4212193,17z/data=!3m1!4b1!4m6!3m5!1s0x470b94edd4885e61:0x7196c9024cdcdba7!8m2!3d50.0834225!4d14.4212193!16s%2Fg%2F11ghfbzp0z?hl=cs&entry=ttu",
        "latitude": 50.0834225,
        "longitude": 14.4212193
    },
    {
        "title": "Cukrárna Letná",
        "totalScore": 4.6,
        "reviewsCount": 39,
        "street": "M. Horákové 611/73",
        "city": "Praha 7-Holešovice",
        "state": null,
        "countryCode": "CZ",
        "website": "http://www.cukrarnamarketa.cz/",
        "phone": "+420 770 600 390",
        "categoryName": "Cukrárna",
        "url": "https://www.google.com/maps/place/Cukr%C3%A1rna+Letn%C3%A1/@50.0998815,14.4237626,17z/data=!3m1!4b1!4m6!3m5!1s0x470b9583a6a5a5ed:0xadbe99a3d177f000!8m2!3d50.0998815!4d14.4237626!16s%2Fg%2F11stg4x75s?hl=cs&entry=ttu",
        "latitude": 50.0998815,
        "longitude": 14.4237626
    },
    {
        "title": "Cukrárna U Hrdinů",
        "totalScore": 4.5,
        "reviewsCount": 218,
        "street": "36, Dukelských Hrdinů 232",
        "city": "Praha 7-Holešovice",
        "state": null,
        "countryCode": "CZ",
        "website": "http://www.uhrdinu.cz/",
        "phone": "+420 737 666 510",
        "categoryName": "Cukrárna",
        "url": "https://www.google.com/maps/place/Cukr%C3%A1rna+U+Hrdin%C5%AF/@50.1018481,14.4332175,17z/data=!3m1!4b1!4m6!3m5!1s0x470b94c88d2a1b47:0xa068835d9e79735a!8m2!3d50.1018481!4d14.4332175!16s%2Fg%2F1td_3x4k?hl=cs&entry=ttu",
        "latitude": 50.1018481,
        "longitude": 14.4332175
    },
    {
        "title": "Cukrárna",
        "totalScore": null,
        "reviewsCount": 0,
        "street": "Freyova 983",
        "city": "Praha 9",
        "state": null,
        "countryCode": "CZ",
        "website": null,
        "phone": "+31 6 37930665",
        "categoryName": "Cukrárna",
        "url": "https://www.google.com/maps/place/Cukr%C3%A1rna/@50.1053272,14.5021497,17z/data=!3m1!4b1!4m6!3m5!1s0x470bed0a8de2215d:0x15910baa30816a57!8m2!3d50.1053272!4d14.5021497!16s%2Fg%2F11vf1hs4kh?hl=cs&entry=ttu",
        "latitude": 50.1053272,
        "longitude": 14.5021497
    },
    {
        "title": "Alchymista",
        "totalScore": 4.7,
        "reviewsCount": 855,
        "street": "Jana Zajíce 975/7",
        "city": "Praha 7-Bubeneč",
        "state": null,
        "countryCode": "CZ",
        "website": "http://www.alchymista.cz/",
        "phone": "+420 732 938 046",
        "categoryName": "Cukrárna",
        "url": "https://www.google.com/maps/place/Alchymista/@50.1009475,14.4171898,17z/data=!3m1!4b1!4m6!3m5!1s0x470b94da40a47567:0xc911e736a5754164!8m2!3d50.1009475!4d14.4171898!16s%2Fg%2F1td_x9l6?hl=cs&entry=ttu",
        "latitude": 50.1009475,
        "longitude": 14.4171898
    },
    {
        "title": "Cukrarna Avanti",
        "totalScore": 4.3,
        "reviewsCount": 377,
        "street": "Mladoboleslavská 475",
        "city": "Kbely",
        "state": null,
        "countryCode": "CZ",
        "website": "http://www.cukrarnaavanti.cz/",
        "phone": "+420 776 213 246",
        "categoryName": "Cukrárna",
        "url": "https://www.google.com/maps/place/Cukrarna+Avanti/@50.1310616,14.5520318,17z/data=!3m1!4b1!4m6!3m5!1s0x470bed044bb9d0d9:0x897392a8cd991865!8m2!3d50.1310616!4d14.5520318!16s%2Fg%2F1260xr7yf?hl=cs&entry=ttu",
        "latitude": 50.1310616,
        "longitude": 14.5520318
    },
    {
        "title": "Cukrárna Buchta - bezlepkové cukrářství",
        "totalScore": 4.9,
        "reviewsCount": 88,
        "street": "Národní obrany 824/35",
        "city": "Praha 6-Bubeneč",
        "state": null,
        "countryCode": "CZ",
        "website": "https://www.facebook.com/Buchta-cukrarstvi-106284158433090/?ref=page_internal",
        "phone": "+420 604 227 672",
        "categoryName": "Cukrárna",
        "url": "https://www.google.com/maps/place/Cukr%C3%A1rna+Buchta+-+bezlepkov%C3%A9+cukr%C3%A1%C5%99stv%C3%AD/@50.101278,14.3975656,17z/data=!3m1!4b1!4m6!3m5!1s0x470b95fff80369f1:0x2e3bf50665207805!8m2!3d50.101278!4d14.3975656!16s%2Fg%2F11rckw_n16?hl=cs&entry=ttu",
        "latitude": 50.101278,
        "longitude": 14.3975656
    },
    {
        "title": "Sladká cesta cukrárna/kavárna",
        "totalScore": 4.7,
        "reviewsCount": 58,
        "street": "Koněvova 39",
        "city": "Praha 3-Žižkov",
        "state": null,
        "countryCode": "CZ",
        "website": "http://sladkacesta.cz/",
        "phone": "+420 734 448 381",
        "categoryName": "Kavárna",
        "url": "https://www.google.com/maps/place/Sladk%C3%A1+cesta+cukr%C3%A1rna%2Fkav%C3%A1rna/@50.0883363,14.4581698,17z/data=!3m1!4b1!4m6!3m5!1s0x470b951b36b04583:0x4a4fc319dc7241e7!8m2!3d50.0883363!4d14.4581698!16s%2Fg%2F11sc29xnvw?hl=cs&entry=ttu",
        "latitude": 50.0883363,
        "longitude": 14.4581698
    },
    {
        "title": "Cukrárna Pekařství Lahůdky BAUMAN",
        "totalScore": 3.3,
        "reviewsCount": 7,
        "street": "Bělehradská 572/63",
        "city": "Vinohrady",
        "state": null,
        "countryCode": "CZ",
        "website": null,
        "phone": null,
        "categoryName": "Cukrárna",
        "url": "https://www.google.com/maps/place/Cukr%C3%A1rna+Peka%C5%99stv%C3%AD+Lah%C5%AFdky+BAUMAN/@50.0726399,14.4331392,17z/data=!3m1!4b1!4m6!3m5!1s0x470b948919333e27:0x812ddd7c9fab1b2!8m2!3d50.0726399!4d14.4331392!16s%2Fg%2F11f537pq5z?hl=cs&entry=ttu",
        "latitude": 50.0726399,
        "longitude": 14.4331392
    },
    {
        "title": "Jindřiška Literová",
        "totalScore": 4.9,
        "reviewsCount": 35,
        "street": "Na Musilech 349",
        "city": "Praha-Libuš",
        "state": null,
        "countryCode": "CZ",
        "website": "http://www.cukrarna-vyrobna.cz/",
        "phone": "+420 261 912 620",
        "categoryName": "Prodejna zákusků",
        "url": "https://www.google.com/maps/place/Jind%C5%99i%C5%A1ka+Literov%C3%A1/@50.0063239,14.4649057,17z/data=!3m1!4b1!4m6!3m5!1s0x470b9173ccb6687b:0xeba041bedaf90053!8m2!3d50.0063239!4d14.4649057!16s%2Fg%2F1tdfgdkd?hl=cs&entry=ttu",
        "latitude": 50.0063239,
        "longitude": 14.4649057
    },
    {
        "title": "Cukrářství Viktoria - pouze výrobna a výdejna objednávek",
        "totalScore": 4.7,
        "reviewsCount": 31,
        "street": "Lysinská 1863/44",
        "city": "Praha 4",
        "state": null,
        "countryCode": "CZ",
        "website": "http://www.cukrarstvi-viktoria.cz/",
        "phone": "+420 222 710 337",
        "categoryName": "Cukrárna",
        "url": "https://www.google.com/maps/place/Cukr%C3%A1%C5%99stv%C3%AD+Viktoria+-+pouze+v%C3%BDrobna+a+v%C3%BDdejna+objedn%C3%A1vek/@50.0138854,14.4101973,17z/data=!3m1!4b1!4m6!3m5!1s0x470b94998a1d94c1:0xaadbdef574f19784!8m2!3d50.0138854!4d14.4101973!16s%2Fg%2F1tcxncxr?hl=cs&entry=ttu",
        "latitude": 50.0138854,
        "longitude": 14.4101973
    },
    {
        "title": "Učňovská cukrárna a pekárna",
        "totalScore": 3.3,
        "reviewsCount": 28,
        "street": "Chlumecká 2398",
        "city": "Horní Počernice",
        "state": null,
        "countryCode": "CZ",
        "website": "http://www.ucnovskacukrarna.cz/",
        "phone": "+420 312 687 237",
        "categoryName": "Pekařství",
        "url": "https://www.google.com/maps/place/U%C4%8D%C5%88ovsk%C3%A1+cukr%C3%A1rna+a+pek%C3%A1rna/@50.1116919,14.5811145,17z/data=!3m1!4b1!4m6!3m5!1s0x470bed5dc37e46c1:0xdf3ba20f0d267643!8m2!3d50.1116919!4d14.5811145!16s%2Fg%2F11fy2k22q4?hl=cs&entry=ttu",
        "latitude": 50.1116919,
        "longitude": 14.5811145
    },
    {
        "title": "Cukrárny",
        "totalScore": 5,
        "reviewsCount": 1,
        "street": "Nitranská 1012/26",
        "city": "Praha 2-Vinohrady",
        "state": null,
        "countryCode": "CZ",
        "website": null,
        "phone": null,
        "categoryName": "Prodejna",
        "url": "https://www.google.com/maps/place/Cukr%C3%A1rny/@50.0770237,14.4504405,17z/data=!3m1!4b1!4m6!3m5!1s0x470b94832a5ce7a7:0x56ad9c4327e8adc9!8m2!3d50.0770237!4d14.4504405!16s%2Fg%2F11fsmt36xk?hl=cs&entry=ttu",
        "latitude": 50.0770237,
        "longitude": 14.4504405
    },
    {
        "title": "Café La Dolce Vita",
        "totalScore": 4.5,
        "reviewsCount": 63,
        "street": "Pplk. Sochora 980/15",
        "city": "Praha 7-Holešovice",
        "state": null,
        "countryCode": "CZ",
        "website": "http://www.nebeskepralinky.cz/",
        "phone": "+420 220 571 194",
        "categoryName": "Cukrárna",
        "url": "https://www.google.com/maps/place/Caf%C3%A9+La+Dolce+Vita/@50.0996225,14.4342817,17z/data=!3m1!4b1!4m6!3m5!1s0x470b94c7db49f065:0x4e06fc68a928157e!8m2!3d50.0996225!4d14.4342817!16s%2Fg%2F1thzshyl?hl=cs&entry=ttu",
        "latitude": 50.0996225,
        "longitude": 14.4342817
    },
    {
        "title": "SiCAKE - Svět Dortů OC Palladium",
        "totalScore": 4,
        "reviewsCount": 28,
        "street": "Náměstí Republiky 1078/1",
        "city": "Petrská čtvrť",
        "state": null,
        "countryCode": "CZ",
        "website": "http://www.sicake.cz/",
        "phone": "+420 724 363 933",
        "categoryName": "Cukrárna",
        "url": "https://www.google.com/maps/place/SiCAKE+-+Sv%C4%9Bt+Dort%C5%AF+OC+Palladium/@50.0891861,14.4287219,17z/data=!3m1!4b1!4m6!3m5!1s0x470b9565c76de62d:0x866a333007bf8b44!8m2!3d50.0891861!4d14.4287219!16s%2Fg%2F11hdpd0gt0?hl=cs&entry=ttu",
        "latitude": 50.0891861,
        "longitude": 14.4287219
    },
    {
        "title": "Cukrárna Simona",
        "totalScore": 4.3,
        "reviewsCount": 45,
        "street": "Sofijské nám. 3404/3",
        "city": "Praha 12-Modřany",
        "state": null,
        "countryCode": "CZ",
        "website": "https://www.cukrarnasimona.cz/",
        "phone": "+420 777 849 360",
        "categoryName": "Cukrárna",
        "url": "https://www.google.com/maps/place/Cukr%C3%A1rna+Simona/@50.0064221,14.416512,17z/data=!3m1!4b1!4m6!3m5!1s0x470b97f0dd52e107:0x95f64de0bcfae8b!8m2!3d50.0064221!4d14.416512!16s%2Fg%2F11h07fsdfn?hl=cs&entry=ttu",
        "latitude": 50.0064221,
        "longitude": 14.416512
    },
    {
        "title": "Punťova psí cukrárna",
        "totalScore": 4.7,
        "reviewsCount": 90,
        "street": "Soběslavská 2249/23",
        "city": "Žižkov",
        "state": null,
        "countryCode": "CZ",
        "website": "http://www.psicukrarna.cz/",
        "phone": "+420 608 721 728",
        "categoryName": "Psí kavárna",
        "url": "https://www.google.com/maps/place/Pun%C5%A5ova+ps%C3%AD+cukr%C3%A1rna/@50.0774201,14.474422,17z/data=!3m1!4b1!4m6!3m5!1s0x470b9498bb632557:0xf6677759d83bae2d!8m2!3d50.0774201!4d14.474422!16s%2Fg%2F11c1tkrlps?hl=cs&entry=ttu",
        "latitude": 50.0774201,
        "longitude": 14.474422
    },
    {
        "title": "Cukrárna",
        "totalScore": 3.9,
        "reviewsCount": 31,
        "street": "Ke Znaku 173",
        "city": "Praha-Klánovice",
        "state": null,
        "countryCode": "CZ",
        "website": null,
        "phone": "+420 733 401 322",
        "categoryName": "Cukrárna",
        "url": "https://www.google.com/maps/place/Cukr%C3%A1rna/@50.0989762,14.6724826,17z/data=!3m1!4b1!4m6!3m5!1s0x470bf3407c88f19f:0x90f2875057e819f5!8m2!3d50.0989762!4d14.6724826!16s%2Fg%2F1tnhx171?hl=cs&entry=ttu",
        "latitude": 50.0989762,
        "longitude": 14.6724826
    },
    {
        "title": "Cukrárna Zela",
        "totalScore": null,
        "reviewsCount": 0,
        "street": "Koněvova 1703/132",
        "city": "Praha 3-Žižkov",
        "state": null,
        "countryCode": "CZ",
        "website": null,
        "phone": null,
        "categoryName": "Kavárna",
        "url": "https://www.google.com/maps/place/Cukr%C3%A1rna+Zela/@50.0902634,14.467636,17z/data=!3m1!4b1!4m6!3m5!1s0x470b934b3dd204e7:0xcdc852bf96d6a184!8m2!3d50.0902634!4d14.467636!16s%2Fg%2F11jyr8jl0p?hl=cs&entry=ttu",
        "latitude": 50.0902634,
        "longitude": 14.467636
    },
    {
        "title": "Cukrárna Boháč a chuďas",
        "totalScore": 4,
        "reviewsCount": 133,
        "street": "Verneřická 559/3A",
        "city": "Praha 9-Prosek",
        "state": null,
        "countryCode": "CZ",
        "website": "http://www.bohacachudas.cz/",
        "phone": "+420 602 340 368",
        "categoryName": "Cukrárna",
        "url": "https://www.google.com/maps/place/Cukr%C3%A1rna+Boh%C3%A1%C4%8D+a+chu%C4%8Fas/@50.1236256,14.4972,17z/data=!3m1!4b1!4m6!3m5!1s0x470becbd803d9e17:0x7c9fae5affb045d4!8m2!3d50.1236256!4d14.4972!16s%2Fg%2F1tf5cg94?hl=cs&entry=ttu",
        "latitude": 50.1236256,
        "longitude": 14.4972
    },
    {
        "title": "Votre plaisir",
        "totalScore": 4.8,
        "reviewsCount": 183,
        "street": "Klimentská 1246/1",
        "city": "Nové Město",
        "state": null,
        "countryCode": "CZ",
        "website": "http://www.votreplaisir.cz/",
        "phone": "+420 737 509 106",
        "categoryName": "Cukrárna",
        "url": "https://www.google.com/maps/place/Votre+plaisir/@50.0915459,14.4280844,17z/data=!3m1!4b1!4m6!3m5!1s0x470b94c012e75ab3:0x964d519d785cb05b!8m2!3d50.0915459!4d14.4280844!16s%2Fg%2F11b78q2vys?hl=cs&entry=ttu",
        "latitude": 50.0915459,
        "longitude": 14.4280844
    },
    {
        "title": "Pekárna a cukrárna U Divadla",
        "totalScore": 3.3,
        "reviewsCount": 16,
        "street": "Branická 144/61",
        "city": "Praha 4-Braník",
        "state": null,
        "countryCode": "CZ",
        "website": null,
        "phone": "+420 725 801 610",
        "categoryName": "Pekařství",
        "url": "https://www.google.com/maps/place/Pek%C3%A1rna+a+cukr%C3%A1rna+U+Divadla/@50.0359495,14.4137031,17z/data=!3m1!4b1!4m6!3m5!1s0x470b9577bdef74a3:0xd41c3ef6a168c5ee!8m2!3d50.0359495!4d14.4137031!16s%2Fg%2F11qh3ph64c?hl=cs&entry=ttu",
        "latitude": 50.0359495,
        "longitude": 14.4137031
    },
    {
        "title": "Erhartova cukrárna",
        "totalScore": 4.3,
        "reviewsCount": 453,
        "street": "M. Horákové 387/56",
        "city": "Praha 7-Holešovice",
        "state": null,
        "countryCode": "CZ",
        "website": "http://www.erhartovacukrarna.cz/",
        "phone": "+420 233 312 148",
        "categoryName": "Cukrárna",
        "url": "https://www.google.com/maps/place/Erhartova+cukr%C3%A1rna/@50.1000941,14.4255645,17z/data=!3m1!4b1!4m6!3m5!1s0x470b94c57359d55b:0x3f4de2245e94ee7b!8m2!3d50.1000941!4d14.4255645!16s%2Fg%2F1tcx07bg?hl=cs&entry=ttu",
        "latitude": 50.1000941,
        "longitude": 14.4255645
    },
    {
        "title": "Cukrárna Jana",
        "totalScore": 3.7,
        "reviewsCount": 3,
        "street": "Železná 548",
        "city": "Staré Město",
        "state": null,
        "countryCode": "CZ",
        "website": null,
        "phone": "+420 224 230 776",
        "categoryName": "Prodejna zákusků",
        "url": "https://www.google.com/maps/place/Cukr%C3%A1rna+Jana/@50.0870619,14.4214947,17z/data=!3m1!4b1!4m6!3m5!1s0x470b94e95aab3e2f:0xd5b1d6134d5ab0b!8m2!3d50.0870619!4d14.4214947!16s%2Fg%2F1tdjvr40?hl=cs&entry=ttu",
        "latitude": 50.0870619,
        "longitude": 14.4214947
    },
    {
        "title": "Cukrárna Bruno",
        "totalScore": 3.9,
        "reviewsCount": 46,
        "street": "Jugoslávských partyzánů 1088",
        "city": "Praha 6",
        "state": null,
        "countryCode": "CZ",
        "website": "http://www.cukrarnabruno.cz/",
        "phone": null,
        "categoryName": "Cukrárna",
        "url": "https://www.google.com/maps/place/Cukr%C3%A1rna+Bruno/@50.1065921,14.3942752,17z/data=!3m1!4b1!4m6!3m5!1s0x470b95306a88bdd7:0xdcaa11ada96303e6!8m2!3d50.1065921!4d14.3942752!16s%2Fg%2F11bwptk38l?hl=cs&entry=ttu",
        "latitude": 50.1065921,
        "longitude": 14.3942752
    },
    {
        "title": "Cukrárna Tichý",
        "totalScore": 4.5,
        "reviewsCount": 340,
        "street": "Klapkova 161",
        "city": "Praha 8",
        "state": null,
        "countryCode": "CZ",
        "website": "http://www.cukrarna-praha8.cz/",
        "phone": "+420 284 686 282",
        "categoryName": "Cukrárna",
        "url": "https://www.google.com/maps/place/Cukr%C3%A1rna+Tich%C3%BD/@50.1261111,14.4569444,17z/data=!3m1!4b1!4m6!3m5!1s0x470beb4177900c9b:0x96bd38ee879d7fa8!8m2!3d50.1261111!4d14.4569444!16s%2Fg%2F11b6d7648v?hl=cs&entry=ttu",
        "latitude": 50.1261111,
        "longitude": 14.4569444
    },
    {
        "title": "Cukrárna a pekařství Moravcovi",
        "totalScore": 3.2,
        "reviewsCount": 20,
        "street": "Ratibořická 2325",
        "city": "Praha 20",
        "state": null,
        "countryCode": "CZ",
        "website": "http://www.pekarstvimoravec.cz/",
        "phone": "+420 776 715 599",
        "categoryName": "Cukrárna",
        "url": "https://www.google.com/maps/place/Cukr%C3%A1rna+a+peka%C5%99stv%C3%AD+Moravcovi/@50.1118669,14.6182782,17z/data=!3m1!4b1!4m6!3m5!1s0x470bf294c3f78b1f:0xff965a4c290700fb!8m2!3d50.1118669!4d14.6182782!16s%2Fg%2F11g8p8ry1v?hl=cs&entry=ttu",
        "latitude": 50.1118669,
        "longitude": 14.6182782
    },
    {
        "title": "Cukrárna Fairy Tale Bakery",
        "totalScore": 4.9,
        "reviewsCount": 65,
        "street": "Drahobejlova 2473/40",
        "city": "Praha 9-Libeň",
        "state": null,
        "countryCode": "CZ",
        "website": "http://fairytalebakery.cz/",
        "phone": "+420 724 414 555",
        "categoryName": "Cukrárna",
        "url": "https://www.google.com/maps/place/Cukr%C3%A1rna+Fairy+Tale+Bakery/@50.1059743,14.4908243,17z/data=!3m1!4b1!4m6!3m5!1s0x470bedf51cc8509f:0xcc5a3d177643dce7!8m2!3d50.1059743!4d14.4908243!16s%2Fg%2F11rcms4_v7?hl=cs&entry=ttu",
        "latitude": 50.1059743,
        "longitude": 14.4908243
    },
    {
        "title": "Cafe La Torta - Cukrárna Zlatá konvice",
        "totalScore": 4.1,
        "reviewsCount": 214,
        "street": "Melantrichova 477",
        "city": "Staré Město",
        "state": null,
        "countryCode": "CZ",
        "website": "http://www.latorta.eu/",
        "phone": "+420 224 214 152",
        "categoryName": "Kavárna / Čajovna",
        "url": "https://www.google.com/maps/place/Cafe+La+Torta+-+Cukr%C3%A1rna+Zlat%C3%A1+konvice/@50.0863618,14.4207438,17z/data=!3m1!4b1!4m6!3m5!1s0x470b94e94ac25187:0xc33439b124708ddb!8m2!3d50.0863618!4d14.4207438!16s%2Fg%2F11b6dg8r43?hl=cs&entry=ttu",
        "latitude": 50.0863618,
        "longitude": 14.4207438
    },
    {
        "title": "Karlovarské cukrářství",
        "totalScore": 5,
        "reviewsCount": 14,
        "street": "nám. Bořislavka",
        "city": "Praha 6",
        "state": null,
        "countryCode": "CZ",
        "website": "https://www.karlovarskecukrarstvi.cz/",
        "phone": null,
        "categoryName": "Cukrárna",
        "url": "https://www.google.com/maps/place/Karlovarsk%C3%A9+cukr%C3%A1%C5%99stv%C3%AD/@50.0983495,14.3622686,17z/data=!3m1!4b1!4m6!3m5!1s0x470b954e22f2988f:0x1db59f4eebb48e9e!8m2!3d50.0983495!4d14.3622686!16s%2Fg%2F11rghmf53l?hl=cs&entry=ttu",
        "latitude": 50.0983495,
        "longitude": 14.3622686
    },
    {
        "title": "Markétina cukrárna",
        "totalScore": 5,
        "reviewsCount": 3,
        "street": "Za Strahovem 10",
        "city": "Praha 6",
        "state": null,
        "countryCode": "CZ",
        "website": "https://www.marketinacukrarna.cz/kontakt",
        "phone": "+420 775 654 041",
        "categoryName": "Cukrárna",
        "url": "https://www.google.com/maps/place/Mark%C3%A9tina+cukr%C3%A1rna/@50.0842945,14.3792198,17z/data=!3m1!4b1!4m6!3m5!1s0x470b95465fbcf937:0x48bbe16757cfa154!8m2!3d50.0842945!4d14.3792198!16s%2Fg%2F11sfx2sbhk?hl=cs&entry=ttu",
        "latitude": 50.0842945,
        "longitude": 14.3792198
    },
    {
        "title": "Kavárna - Cukrárna Elvíra",
        "totalScore": 4.5,
        "reviewsCount": 176,
        "street": "Francouzská 761/21",
        "city": "Vinohrady",
        "state": null,
        "countryCode": "CZ",
        "website": "http://www.elviracafe.com/",
        "phone": "+420 722 373 396",
        "categoryName": "Kavárna / Čajovna",
        "url": "https://www.google.com/maps/place/Kav%C3%A1rna+-+Cukr%C3%A1rna+Elv%C3%ADra/@50.0734244,14.4411401,17z/data=!3m1!4b1!4m6!3m5!1s0x470b9485d4a1b7b7:0xeb7ec7b3cc959cf6!8m2!3d50.0734244!4d14.4411401!16s%2Fg%2F11g07xy759?hl=cs&entry=ttu",
        "latitude": 50.0734244,
        "longitude": 14.4411401
    },
    {
        "title": "Cukrárna ZSMV",
        "totalScore": 3.5,
        "reviewsCount": 15,
        "street": "Na Pankráci 1623",
        "city": "Praha 4-Nusle",
        "state": null,
        "countryCode": "CZ",
        "website": "https://www.zsmv.cz/gastro/cukrarna/",
        "phone": "+420 974 849 702",
        "categoryName": "Cukrárna",
        "url": "https://www.google.com/maps/place/Cukr%C3%A1rna+ZSMV/@50.0551595,14.4354379,17z/data=!3m1!4b1!4m6!3m5!1s0x470b94712981cfd5:0xd8ce98e37dd120a1!8m2!3d50.0551595!4d14.4354379!16s%2Fg%2F11c601jv2w?hl=cs&entry=ttu",
        "latitude": 50.0551595,
        "longitude": 14.4354379
    },
    {
        "title": "Ovocná Cukrárna Hana Rašínová",
        "totalScore": 4.7,
        "reviewsCount": 112,
        "street": "Terronská 582",
        "city": "Praha 6-Bubeneč",
        "state": null,
        "countryCode": "CZ",
        "website": null,
        "phone": "+420 606 248 887",
        "categoryName": "Cukrárna",
        "url": "https://www.google.com/maps/place/Ovocn%C3%A1+Cukr%C3%A1rna+Hana+Ra%C5%A1%C3%ADnov%C3%A1/@50.1026973,14.3985329,17z/data=!3m1!4b1!4m6!3m5!1s0x4173137ef6d5c33b:0x65f8a3678000a74e!8m2!3d50.1026973!4d14.3985329!16s%2Fg%2F11b7gxd__q?hl=cs&entry=ttu",
        "latitude": 50.1026973,
        "longitude": 14.3985329
    },
    {
        "title": "Cukrárna Pankrác",
        "totalScore": 4.1,
        "reviewsCount": 7,
        "street": "4, Praha",
        "city": "Praha 4",
        "state": null,
        "countryCode": "CZ",
        "website": null,
        "phone": "+420 974 849 702",
        "categoryName": "Cukrárna",
        "url": "https://www.google.com/maps/place/Cukr%C3%A1rna+Pankr%C3%A1c/@50.0551563,14.4354303,17z/data=!3m1!4b1!4m6!3m5!1s0x470b94712cade48f:0x931bf45b1bbb388e!8m2!3d50.0551563!4d14.4354303!16s%2Fg%2F11hbq0wy0n?hl=cs&entry=ttu",
        "latitude": 50.0551563,
        "longitude": 14.4354303
    },
    {
        "title": "Cukrárna U Palmy",
        "totalScore": 3,
        "reviewsCount": 22,
        "street": "Jirečkova 17",
        "city": "Praha 7-Holešovice",
        "state": null,
        "countryCode": "CZ",
        "website": "http://www.upalmy.cz/",
        "phone": "+420 233 370 083",
        "categoryName": "Cukrárna",
        "url": "https://www.google.com/maps/place/Cukr%C3%A1rna+U+Palmy/@50.0991744,14.4225012,17z/data=!3m1!4b1!4m6!3m5!1s0x470b94c529facbb5:0x45d7ae45598970b3!8m2!3d50.0991744!4d14.4225012!16s%2Fg%2F1tfcm1jr?hl=cs&entry=ttu",
        "latitude": 50.0991744,
        "longitude": 14.4225012
    },
    {
        "title": "Smetanová cukrárna s kávou",
        "totalScore": 4.7,
        "reviewsCount": 68,
        "street": "Opletalova 921/6",
        "city": "Nové Město",
        "state": null,
        "countryCode": "CZ",
        "website": "http://www.cukrarna.cz/",
        "phone": null,
        "categoryName": "Cukrárna",
        "url": "https://www.google.com/maps/place/Smetanov%C3%A1+cukr%C3%A1rna+s+k%C3%A1vou/@50.0810928,14.4295529,17z/data=!3m1!4b1!4m6!3m5!1s0x470b95e5915b3d09:0x8e60269f3ec4eab1!8m2!3d50.0810928!4d14.4295529!16s%2Fg%2F11t6f_0ybt?hl=cs&entry=ttu",
        "latitude": 50.0810928,
        "longitude": 14.4295529
    },
    {
        "title": "Cukrárna Apetit",
        "totalScore": 4.1,
        "reviewsCount": 314,
        "street": "Revoluční 1634",
        "city": "Petrská čtvrť",
        "state": null,
        "countryCode": "CZ",
        "website": "https://www.apetitpraha.cz/",
        "phone": "+420 222 329 865",
        "categoryName": "Prodejna zákusků",
        "url": "https://www.google.com/maps/place/Cukr%C3%A1rna+Apetit/@50.090476,14.428017,17z/data=!3m1!4b1!4m6!3m5!1s0x470b94ea7f124eb7:0xe34660284389fa52!8m2!3d50.090476!4d14.428017!16s%2Fg%2F1hc2_8ph8?hl=cs&entry=ttu",
        "latitude": 50.090476,
        "longitude": 14.428017
    },
    {
        "title": "Cukrárna Sladká Monika",
        "totalScore": 4.8,
        "reviewsCount": 51,
        "street": "Vlkova 456",
        "city": "Praha 3-Žižkov",
        "state": null,
        "countryCode": "CZ",
        "website": "https://cukrarnasladkamonika.cz/",
        "phone": "+420 222 721 813",
        "categoryName": "Prodejna zákusků",
        "url": "https://www.google.com/maps/place/Cukr%C3%A1rna+Sladk%C3%A1+Monika/@50.0829552,14.4451072,17z/data=!3m1!4b1!4m6!3m5!1s0x470b949a26e421b1:0xb8fe82b8b037e02!8m2!3d50.0829552!4d14.4451072!16s%2Fg%2F1td1c3v_?hl=cs&entry=ttu",
        "latitude": 50.0829552,
        "longitude": 14.4451072
    },
    {
        "title": "Cukrárna Klárka",
        "totalScore": 5,
        "reviewsCount": 17,
        "street": "Na Spojce 87/8",
        "city": "Praha 10-Vršovice",
        "state": null,
        "countryCode": "CZ",
        "website": "http://www.cukrarnaklarka.cz/",
        "phone": "+420 777 474 999",
        "categoryName": "Cukrárna",
        "url": "https://www.google.com/maps/place/Cukr%C3%A1rna+Kl%C3%A1rka/@50.0675183,14.456577,17z/data=!3m1!4b1!4m6!3m5!1s0x470b9394d9c64d19:0xec1a43677c2af2c8!8m2!3d50.0675183!4d14.456577!16s%2Fg%2F11v0nb_h_x?hl=cs&entry=ttu",
        "latitude": 50.0675183,
        "longitude": 14.456577
    },
    {
        "title": "Cukrárna Amarilis Vysočany",
        "totalScore": 4.1,
        "reviewsCount": 353,
        "street": "Pešlova 94/6",
        "city": "Praha 9",
        "state": null,
        "countryCode": "CZ",
        "website": "http://www.amarilis.cz/",
        "phone": "+420 283 923 141",
        "categoryName": "Prodejna zákusků",
        "url": "https://www.google.com/maps/place/Cukr%C3%A1rna+Amarilis+Vyso%C4%8Dany/@50.1112806,14.4979798,17z/data=!3m1!4b1!4m6!3m5!1s0x470b948ddda8a4a5:0xb0fc205525a6740a!8m2!3d50.1112806!4d14.4979798!16s%2Fg%2F11x9wx_d0?hl=cs&entry=ttu",
        "latitude": 50.1112806,
        "longitude": 14.4979798
    },
    {
        "title": "Cukrárna Vanille",
        "totalScore": 4.5,
        "reviewsCount": 422,
        "street": "Náměstí Míru 342",
        "city": "Vinohrady",
        "state": null,
        "countryCode": "CZ",
        "website": "http://www.vanille.cz/",
        "phone": "+420 777 836 320",
        "categoryName": "Cukrárna",
        "url": "https://www.google.com/maps/place/Cukr%C3%A1rna+Vanille/@50.074811,14.436817,17z/data=!3m1!4b1!4m6!3m5!1s0x470b948f0ef53855:0x533fb672ceb8f2ee!8m2!3d50.074811!4d14.436817!16s%2Fg%2F11bc7mgn0k?hl=cs&entry=ttu",
        "latitude": 50.074811,
        "longitude": 14.436817
    },
    {
        "title": "Cukrárna Kamel",
        "totalScore": 4.6,
        "reviewsCount": 116,
        "street": "Francouzská 42",
        "city": "Vinohrady, Praha 2-Vinohrady-Praha 2",
        "state": null,
        "countryCode": "CZ",
        "website": "http://www.cukrarnakamel.cz/",
        "phone": "+420 608 507 381",
        "categoryName": "Cukrárna",
        "url": "https://www.google.com/maps/place/Cukr%C3%A1rna+Kamel/@50.0727394,14.4421317,17z/data=!3m1!4b1!4m6!3m5!1s0x470b9485f422faaf:0x8c9daf451ce42b36!8m2!3d50.0727394!4d14.4421317!16s%2Fg%2F11cm_qfbdy?hl=cs&entry=ttu",
        "latitude": 50.0727394,
        "longitude": 14.4421317
    },
    {
        "title": "Cukrárna Hájek&Hájková Krč - Modrý Pavilon",
        "totalScore": 4.4,
        "reviewsCount": 81,
        "street": "Štúrova 1281/10",
        "city": "Praha 4-Krč",
        "state": null,
        "countryCode": "CZ",
        "website": "http://www.cukrarna-hajek-hajkova.cz/",
        "phone": "+420 736 539 864",
        "categoryName": "Cukrárna",
        "url": "https://www.google.com/maps/place/Cukr%C3%A1rna+H%C3%A1jek%26H%C3%A1jkov%C3%A1+Kr%C4%8D+-+Modr%C3%BD+Pavilon/@50.023354,14.4517486,17z/data=!3m1!4b1!4m6!3m5!1s0x470b9198bcbbe261:0xd95bd9631cba6a82!8m2!3d50.023354!4d14.4517486!16s%2Fg%2F11rj_jqh35?hl=cs&entry=ttu",
        "latitude": 50.023354,
        "longitude": 14.4517486
    },
    {
        "title": "Cukrárna Delikates",
        "totalScore": 4.4,
        "reviewsCount": 47,
        "street": "Vinohradská 2266/118",
        "city": "Vinohrady",
        "state": null,
        "countryCode": "CZ",
        "website": "https://www.facebook.com/profile.php?id=100066665805735",
        "phone": "+420 271 734 010",
        "categoryName": "Cukrárna",
        "url": "https://www.google.com/maps/place/Cukr%C3%A1rna+Delikates/@50.0774632,14.457986,17z/data=!3m1!4b1!4m6!3m5!1s0x470b938ebe8c6c4b:0xf34a4961439b2741!8m2!3d50.0774632!4d14.457986!16s%2Fg%2F11fj_d2zsb?hl=cs&entry=ttu",
        "latitude": 50.0774632,
        "longitude": 14.457986
    },
    {
        "title": "Kavárna a cukrárna SMIS",
        "totalScore": 4.4,
        "reviewsCount": 137,
        "street": "27, J. Želivského 1860",
        "city": "Praha 3-Žižkov",
        "state": null,
        "countryCode": "CZ",
        "website": null,
        "phone": "+420 222 585 989",
        "categoryName": "Kavárna / Čajovna",
        "url": "https://www.google.com/maps/place/Kav%C3%A1rna+a+cukr%C3%A1rna+SMIS/@50.0877796,14.4690161,17z/data=!3m1!4b1!4m6!3m5!1s0x470b935db60966c1:0xa05aadda8cb9781a!8m2!3d50.0877796!4d14.4690161!16s%2Fg%2F1tgx0r32?hl=cs&entry=ttu",
        "latitude": 50.0877796,
        "longitude": 14.4690161
    },
    {
        "title": "Cukrárna - výrobna",
        "totalScore": 4.5,
        "reviewsCount": 2,
        "street": "Na Musilech",
        "city": "Praha 4",
        "state": null,
        "countryCode": "CZ",
        "website": "http://www.cukrarna-vyrobna.cz/jak%20k%20n%C3%A1m.html",
        "phone": "+420 261 912 620",
        "categoryName": "Pekařství",
        "url": "https://www.google.com/maps/place/Cukr%C3%A1rna+-+v%C3%BDrobna/@50.0061619,14.4651501,17z/data=!3m1!4b1!4m6!3m5!1s0x470b9173ccb6687d:0xf27e05e53cb5577e!8m2!3d50.0061619!4d14.4651501!16s%2Fg%2F11hzv5m1j8?hl=cs&entry=ttu",
        "latitude": 50.0061619,
        "longitude": 14.4651501
    },
    {
        "title": "Zelenkova cukrárna",
        "totalScore": 4.4,
        "reviewsCount": 163,
        "street": "Nuselská 43",
        "city": "Praha 4-Nusle",
        "state": null,
        "countryCode": "CZ",
        "website": "http://www.zelenkovacukrarna.cz/",
        "phone": "+420 727 927 297",
        "categoryName": "Cukrárna",
        "url": "https://www.google.com/maps/place/Zelenkova+cukr%C3%A1rna/@50.0620185,14.4456506,17z/data=!3m1!4b1!4m6!3m5!1s0x470b959e24652b59:0x3592eea92a8c3962!8m2!3d50.0620185!4d14.4456506!16s%2Fg%2F11j5vq7nz2?hl=cs&entry=ttu",
        "latitude": 50.0620185,
        "longitude": 14.4456506
    },
    {
        "title": "DOBRÁ CUKRÁRNA",
        "totalScore": 4.7,
        "reviewsCount": 89,
        "street": "Náměstí Jiřího z Lobkovic",
        "city": "Praha 3-Vinohrady",
        "state": null,
        "countryCode": "CZ",
        "website": null,
        "phone": "+420 702 605 988",
        "categoryName": "Zákusková restaurace",
        "url": "https://www.google.com/maps/place/DOBR%C3%81+CUKR%C3%81RNA/@50.0775144,14.4679605,17z/data=!3m1!4b1!4m6!3m5!1s0x470b9365764486a5:0x19a0a90820415aa4!8m2!3d50.0775144!4d14.4679605!16s%2Fg%2F11clv88f_d?hl=cs&entry=ttu",
        "latitude": 50.0775144,
        "longitude": 14.4679605
    },
    {
        "title": "Cukrárna Lucie",
        "totalScore": 4.6,
        "reviewsCount": 212,
        "street": "Koněvova 129",
        "city": "Praha 3-Žižkov",
        "state": null,
        "countryCode": "CZ",
        "website": "http://www.cukrarnalucie.cz/",
        "phone": "+420 222 781 732",
        "categoryName": "Cukrárna",
        "url": "https://www.google.com/maps/place/Cukr%C3%A1rna+Lucie/@50.0872227,14.454376,17z/data=!3m1!4b1!4m6!3m5!1s0x470b94a1df632a33:0x37713c84420122c7!8m2!3d50.0872227!4d14.454376!16s%2Fg%2F1tm__yp8?hl=cs&entry=ttu",
        "latitude": 50.0872227,
        "longitude": 14.454376
    },
    {
        "title": "Andělská cukrárna",
        "totalScore": 4.3,
        "reviewsCount": 402,
        "street": "Vlkova 30",
        "city": "Praha 3-Žižkov",
        "state": null,
        "countryCode": "CZ",
        "website": "http://andelska-cukrarna.com/",
        "phone": "+420 721 878 761",
        "categoryName": "Cukrárna",
        "url": "https://www.google.com/maps/place/And%C4%9Blsk%C3%A1+cukr%C3%A1rna/@50.0835097,14.4475408,17z/data=!3m1!4b1!4m6!3m5!1s0x470b95966b33bfff:0xe592251d3b2f2de5!8m2!3d50.0835097!4d14.4475408!16s%2Fg%2F11gl4ly0pf?hl=cs&entry=ttu",
        "latitude": 50.0835097,
        "longitude": 14.4475408
    },
    {
        "title": "Cukrárna Charlie",
        "totalScore": 4.6,
        "reviewsCount": 54,
        "street": "Nuselská 595",
        "city": "Praha 4-Michle",
        "state": null,
        "countryCode": "CZ",
        "website": "https://cukrarnacharlie.cz/",
        "phone": "+420 722 299 821",
        "categoryName": "Prodejna zákusků",
        "url": "https://www.google.com/maps/place/Cukr%C3%A1rna+Charlie/@50.0593971,14.4494828,17z/data=!3m1!4b1!4m6!3m5!1s0x470b93868aaf28ad:0x9349bc395e320a65!8m2!3d50.0593971!4d14.4494828!16s%2Fg%2F1ptypmkbx?hl=cs&entry=ttu",
        "latitude": 50.0593971,
        "longitude": 14.4494828
    },
    {
        "title": "Cukrárna",
        "totalScore": null,
        "reviewsCount": 0,
        "street": "Na Zderaze 2",
        "city": "Nové Město",
        "state": null,
        "countryCode": "CZ",
        "website": null,
        "phone": "+44 7435 920800",
        "categoryName": "Cukrárna",
        "url": "https://www.google.com/maps/place/Cukr%C3%A1rna/@50.0762946,14.416671,17z/data=!3m1!4b1!4m6!3m5!1s0x470b9519ea5cc931:0xe4e84bcfe7acd1f3!8m2!3d50.0762946!4d14.416671!16s%2Fg%2F11vbg78bk4?hl=cs&entry=ttu",
        "latitude": 50.0762946,
        "longitude": 14.416671
    },
    {
        "title": "Cukrárna",
        "totalScore": null,
        "reviewsCount": 0,
        "street": null,
        "city": "Praha 4",
        "state": null,
        "countryCode": "CZ",
        "website": null,
        "phone": null,
        "categoryName": null,
        "url": "https://www.google.com/maps/place/Cukr%C3%A1rna/@50.0467429,14.4158652,17z/data=!3m1!4b1!4m6!3m5!1s0x470b941470dcb1e1:0x976e80c22ad5763!8m2!3d50.0467429!4d14.4158652!16s%2Fg%2F11kn71bts0?hl=cs&entry=ttu",
        "latitude": 50.0467429,
        "longitude": 14.4158652
    },
    {
        "title": "Učňovská cukrárna & pekárna",
        "totalScore": 3.4,
        "reviewsCount": 17,
        "street": "Slánská 1706/2",
        "city": "Praha 17-Řepy",
        "state": null,
        "countryCode": "CZ",
        "website": "http://www.ucnovskacukrarna.cz/",
        "phone": null,
        "categoryName": "Cukrárna",
        "url": "https://www.google.com/maps/place/U%C4%8D%C5%88ovsk%C3%A1+cukr%C3%A1rna+%26+pek%C3%A1rna/@50.0751617,14.3078679,17z/data=!3m1!4b1!4m6!3m5!1s0x470bbf4644ef6771:0x26cd27fa30d78a96!8m2!3d50.0751617!4d14.3078679!16s%2Fg%2F11h769vgqh?hl=cs&entry=ttu",
        "latitude": 50.0751617,
        "longitude": 14.3078679
    },
    {
        "title": "U Borůvky",
        "totalScore": 4.9,
        "reviewsCount": 106,
        "street": "Kyjevská 525",
        "city": "Praha 6-Dejvice",
        "state": null,
        "countryCode": "CZ",
        "website": "http://www.uboruvky.cz/",
        "phone": "+420 606 862 594",
        "categoryName": "Cukrárna",
        "url": "https://www.google.com/maps/place/U+Bor%C5%AFvky/@50.0987404,14.398414,17z/data=!3m1!4b1!4m6!3m5!1s0x470b9523efaacd3f:0x23fac34d22007bc4!8m2!3d50.0987404!4d14.398414!16s%2Fg%2F11gblc18f3?hl=cs&entry=ttu",
        "latitude": 50.0987404,
        "longitude": 14.398414
    },
    {
        "title": "Cukrárna Koko",
        "totalScore": null,
        "reviewsCount": 0,
        "street": "Jiránkova 1137",
        "city": "Praha 17",
        "state": null,
        "countryCode": "CZ",
        "website": null,
        "phone": null,
        "categoryName": "Pekařství",
        "url": "https://www.google.com/maps/place/Cukr%C3%A1rna+Koko/@50.0629429,14.3082933,17z/data=!3m1!4b1!4m6!3m5!1s0x470bbe160f6e3a61:0xa15233a7010c7213!8m2!3d50.0629429!4d14.3082933!16s%2Fg%2F11b6v45mgq?hl=cs&entry=ttu",
        "latitude": 50.0629429,
        "longitude": 14.3082933
    },
    {
        "title": "Cukrárny",
        "totalScore": null,
        "reviewsCount": 0,
        "street": "288, Valdštejnská",
        "city": "Malá Strana",
        "state": null,
        "countryCode": "CZ",
        "website": null,
        "phone": null,
        "categoryName": "Kavárna / Čajovna",
        "url": "https://www.google.com/maps/place/Cukr%C3%A1rny/@50.091489,14.4087556,17z/data=!3m1!4b1!4m6!3m5!1s0x470b94e0c1b12f39:0x82a727ac0849f08c!8m2!3d50.091489!4d14.4087556!16s%2Fg%2F11j8ll8sq7?hl=cs&entry=ttu",
        "latitude": 50.091489,
        "longitude": 14.4087556
    },
    {
        "title": "Cukrárna Marta",
        "totalScore": null,
        "reviewsCount": 0,
        "street": "U Vinohradské nemocnice 2112",
        "city": "Praha 3-Vinohrady",
        "state": null,
        "countryCode": "CZ",
        "website": null,
        "phone": null,
        "categoryName": "Pekařství",
        "url": "https://www.google.com/maps/place/Cukr%C3%A1rna+Marta/@50.0765061,14.4750739,17z/data=!3m1!4b1!4m6!3m5!1s0x470b936e7cccc4d1:0x7ecf6ddd22ff081e!8m2!3d50.0765061!4d14.4750739!16s%2Fg%2F11b6vb8690?hl=cs&entry=ttu",
        "latitude": 50.0765061,
        "longitude": 14.4750739
    },
    {
        "title": "Designové a luxusní dorty, cukrárna GULJARDO",
        "totalScore": 4.6,
        "reviewsCount": 75,
        "street": "V Zeleném údolí 1301/9",
        "city": "Praha-Kunratice",
        "state": null,
        "countryCode": "CZ",
        "website": "https://www.guljardo.com/",
        "phone": "+420 776 152 835",
        "categoryName": "Kavárna / Čajovna",
        "url": "https://www.google.com/maps/place/Designov%C3%A9+a+luxusn%C3%AD+dorty,+cukr%C3%A1rna+GULJARDO/@50.0211777,14.465503,17z/data=!3m1!4b1!4m6!3m5!1s0x470b9162f683f3af:0x437a17ba606edc9f!8m2!3d50.0211777!4d14.465503!16s%2Fg%2F11fmx0hcpn?hl=cs&entry=ttu",
        "latitude": 50.0211777,
        "longitude": 14.465503
    },
    {
        "title": "Cukrárna Aleš",
        "totalScore": 4.4,
        "reviewsCount": 30,
        "street": "15, Makovského 1227",
        "city": "Praha 17",
        "state": null,
        "countryCode": "CZ",
        "website": "http://www.dortyales.cz/",
        "phone": "+420 608 232 233",
        "categoryName": "Prodejna zákusků",
        "url": "https://www.google.com/maps/place/Cukr%C3%A1rna+Ale%C5%A1/@50.0654051,14.3035426,17z/data=!3m1!4b1!4m6!3m5!1s0x470bbe3fc1cf136f:0xd46f3445fc1d498f!8m2!3d50.0654051!4d14.3035426!16s%2Fg%2F11clt7jmz8?hl=cs&entry=ttu",
        "latitude": 50.0654051,
        "longitude": 14.3035426
    },
    {
        "title": "Kavárna a cukrárna Na Neklance 29",
        "totalScore": 4.9,
        "reviewsCount": 13,
        "street": "Na Neklance 29",
        "city": "Praha 5",
        "state": null,
        "countryCode": "CZ",
        "website": null,
        "phone": "+420 777 277 502",
        "categoryName": "Kavárna",
        "url": "https://www.google.com/maps/place/Kav%C3%A1rna+a+cukr%C3%A1rna+Na+Neklance+29/@50.0602527,14.3986162,17z/data=!3m1!4b1!4m6!3m5!1s0x470b95911b67afb9:0x84c2f35963e9baa7!8m2!3d50.0602527!4d14.3986162!16s%2Fg%2F11kj8xdj17?hl=cs&entry=ttu",
        "latitude": 50.0602527,
        "longitude": 14.3986162
    },
    {
        "title": "Cukrárna-Kavárna",
        "totalScore": 4.3,
        "reviewsCount": 23,
        "street": "Vídeňská 1958",
        "city": "Praha 4",
        "state": null,
        "countryCode": "CZ",
        "website": "http://www.ikem.cz/",
        "phone": "+420 604 201 693",
        "categoryName": "Kavárna / Čajovna",
        "url": "https://www.google.com/maps/place/Cukr%C3%A1rna-Kav%C3%A1rna/@50.0227903,14.463014,17z/data=!3m1!4b1!4m6!3m5!1s0x470b9162040d65f7:0xe395e2f4025c6dfb!8m2!3d50.0227903!4d14.463014!16s%2Fg%2F11bwpqqx6d?hl=cs&entry=ttu",
        "latitude": 50.0227903,
        "longitude": 14.463014
    },
    {
        "title": "IPPA Café Břevnov",
        "totalScore": 4,
        "reviewsCount": 122,
        "street": "134, Bělohorská 724",
        "city": "Praha 6",
        "state": null,
        "countryCode": "CZ",
        "website": "https://ippacafe.cz/",
        "phone": "+420 774 465 705",
        "categoryName": "Cukrárna",
        "url": "https://www.google.com/maps/place/IPPA+Caf%C3%A9+B%C5%99evnov/@50.0839141,14.3634034,17z/data=!3m1!4b1!4m6!3m5!1s0x470b9573e5804761:0x2dfdf766af6f12b5!8m2!3d50.0839141!4d14.3634034!16s%2Fg%2F1tct7fl3?hl=cs&entry=ttu",
        "latitude": 50.0839141,
        "longitude": 14.3634034
    },
    {
        "title": "Zelenkova cukrárna",
        "totalScore": 4.4,
        "reviewsCount": 134,
        "street": "Koněvova 1703/132",
        "city": "Praha 3",
        "state": null,
        "countryCode": "CZ",
        "website": "http://www.zelenkovacukrarna.cz/",
        "phone": "+420 702 073 544",
        "categoryName": "Cukrárna",
        "url": "https://www.google.com/maps/place/Zelenkova+cukr%C3%A1rna/@50.090799,14.4712719,17z/data=!3m1!4b1!4m6!3m5!1s0x470b935b8ef75fc5:0x88d12f7fa06cf003!8m2!3d50.090799!4d14.4712719!16s%2Fg%2F11b6j7pn2x?hl=cs&entry=ttu",
        "latitude": 50.090799,
        "longitude": 14.4712719
    },
    {
        "title": "Erhartova cukrárna - Vinohrady",
        "totalScore": 4.3,
        "reviewsCount": 466,
        "street": "Vinohradská 2022/125",
        "city": "Praha 3-Vinohrady",
        "state": null,
        "countryCode": "CZ",
        "website": "http://www.erhartovacukrarna.cz/",
        "phone": "+420 273 130 574",
        "categoryName": "Cukrárna",
        "url": "https://www.google.com/maps/place/Erhartova+cukr%C3%A1rna+-+Vinohrady/@50.0777001,14.4563474,17z/data=!3m1!4b1!4m6!3m5!1s0x470b9362bf94480b:0xbb3fd20b3a71508f!8m2!3d50.0777001!4d14.4563474!16s%2Fg%2F1pwftwshr?hl=cs&entry=ttu",
        "latitude": 50.0777001,
        "longitude": 14.4563474
    },
    {
        "title": "Amentes",
        "totalScore": 4.2,
        "reviewsCount": 26,
        "street": "Rajská Zahrada, Cíglerova 1139",
        "city": "Praha 14-Černý Most",
        "state": null,
        "countryCode": "CZ",
        "website": null,
        "phone": "+420 774 217 644",
        "categoryName": "Cukrárna",
        "url": "https://www.google.com/maps/place/Amentes/@50.1057266,14.5582635,17z/data=!3m1!4b1!4m6!3m5!1s0x470bed47fc9819d7:0x8f758417eb3c6488!8m2!3d50.1057266!4d14.5582635!16s%2Fg%2F11c5bh5n80?hl=cs&entry=ttu",
        "latitude": 50.1057266,
        "longitude": 14.5582635
    },
    {
        "title": "Cukrárna Mučenka",
        "totalScore": 4.8,
        "reviewsCount": 327,
        "street": "Kladenská 421",
        "city": "Praha 6",
        "state": null,
        "countryCode": "CZ",
        "website": "http://www.mucenka.cz/",
        "phone": "+420 607 010 723",
        "categoryName": "Kavárna / Čajovna",
        "url": "https://www.google.com/maps/place/Cukr%C3%A1rna+Mu%C4%8Denka/@50.0973845,14.3650844,17z/data=!3m1!4b1!4m6!3m5!1s0x470b956837095107:0x6f76f6533df927be!8m2!3d50.0973845!4d14.3650844!16s%2Fg%2F11bywkxr8t?hl=cs&entry=ttu",
        "latitude": 50.0973845,
        "longitude": 14.3650844
    },
    {
        "title": "Cukrárna DonPablo",
        "totalScore": 3.7,
        "reviewsCount": 26,
        "street": "Libušská 395/229",
        "city": "Praha 4",
        "state": null,
        "countryCode": "CZ",
        "website": "http://www.donpablo.cz/",
        "phone": "+420 731 154 000",
        "categoryName": "Cukrárna",
        "url": "https://www.google.com/maps/place/Cukr%C3%A1rna+DonPablo/@50.0141201,14.4567641,17z/data=!3m1!4b1!4m6!3m5!1s0x470b912ce56e7f67:0x525868091195f4d!8m2!3d50.0141201!4d14.4567641!16s%2Fg%2F11h0mn_dpv?hl=cs&entry=ttu",
        "latitude": 50.0141201,
        "longitude": 14.4567641
    },
    {
        "title": "Erhartova cukrárna - Vodičkova",
        "totalScore": 4.6,
        "reviewsCount": 73,
        "street": "Vodičkova 28",
        "city": "Nové Město",
        "state": null,
        "countryCode": "CZ",
        "website": "http://www.erhartovacukrarna.cz/",
        "phone": "+420 777 227 248",
        "categoryName": "Cukrárna",
        "url": "https://www.google.com/maps/place/Erhartova+cukr%C3%A1rna+-+Vodi%C4%8Dkova/@50.080525,14.4242719,17z/data=!3m1!4b1!4m6!3m5!1s0x470b958dff94aa91:0xf86d126f76370a11!8m2!3d50.080525!4d14.4242719!16s%2Fg%2F11fk4q_qmt?hl=cs&entry=ttu",
        "latitude": 50.080525,
        "longitude": 14.4242719
    },
    {
        "title": "Cukrárna Pralinka",
        "totalScore": 4.8,
        "reviewsCount": 99,
        "street": "Vršovická 866/3",
        "city": "Praha 10-Vršovice",
        "state": null,
        "countryCode": "CZ",
        "website": "http://www.cukrarnavrsovice.cz/",
        "phone": "+420 777 058 005",
        "categoryName": "Cukrárna",
        "url": "https://www.google.com/maps/place/Cukr%C3%A1rna+Pralinka/@50.0661853,14.4493461,17z/data=!3m1!4b1!4m6!3m5!1s0x470b93800ff6416f:0xbe5de33a67b5abbf!8m2!3d50.0661853!4d14.4493461!16s%2Fg%2F1tmpcn89?hl=cs&entry=ttu",
        "latitude": 50.0661853,
        "longitude": 14.4493461
    },
    {
        "title": "Cukrárna a lahůdky IVA",
        "totalScore": 4.8,
        "reviewsCount": 16,
        "street": "23, U První baterie 1077",
        "city": "Praha 6-Břevnov",
        "state": null,
        "countryCode": "CZ",
        "website": null,
        "phone": "+420 723 504 913",
        "categoryName": "Cukrárna",
        "url": "https://www.google.com/maps/place/Cukr%C3%A1rna+a+lah%C5%AFdky+IVA/@50.0897278,14.3689053,17z/data=!3m1!4b1!4m6!3m5!1s0x470b956da982c5a3:0x2199fd40201d7da5!8m2!3d50.0897278!4d14.3689053!16s%2Fg%2F11dx93rgqq?hl=cs&entry=ttu",
        "latitude": 50.0897278,
        "longitude": 14.3689053
    },
    {
        "title": "Cukrářství Viktoria - cukrárna Písnice",
        "totalScore": 4.6,
        "reviewsCount": 262,
        "street": "2, V Zákopech 341",
        "city": "Praha 4-Písnice",
        "state": null,
        "countryCode": "CZ",
        "website": "http://www.cukrarstvi-viktoria.cz/",
        "phone": "+420 605 464 092",
        "categoryName": "Cukrárna",
        "url": "https://www.google.com/maps/place/Cukr%C3%A1%C5%99stv%C3%AD+Viktoria+-+cukr%C3%A1rna+P%C3%ADsnice/@49.9960413,14.4678117,17z/data=!3m1!4b1!4m6!3m5!1s0x470b91098f5045cd:0xd4f8569f93229fbc!8m2!3d49.9960413!4d14.4678117!16s%2Fg%2F1tkl20p0?hl=cs&entry=ttu",
        "latitude": 49.9960413,
        "longitude": 14.4678117
    },
    {
        "title": "Dorty Domů",
        "totalScore": 3.9,
        "reviewsCount": 70,
        "street": "Jeremenkova 920",
        "city": "Praha 4-Podolí",
        "state": null,
        "countryCode": "CZ",
        "website": "http://www.dortydomu.cz/",
        "phone": "+420 724 083 809",
        "categoryName": "Cukrárna",
        "url": "https://www.google.com/maps/place/Dorty+Dom%C5%AF/@50.0466832,14.4160567,17z/data=!3m1!4b1!4m6!3m5!1s0x470b9414771e89fb:0x8f498826167dd5af!8m2!3d50.0466832!4d14.4160567!16s%2Fg%2F11g6bjbsgb?hl=cs&entry=ttu",
        "latitude": 50.0466832,
        "longitude": 14.4160567
    },
    {
        "title": "Pekárna Cukrárna Bar",
        "totalScore": 5,
        "reviewsCount": 1,
        "street": "Pod Marjánkou 1397",
        "city": "Praha 6-Břevnov",
        "state": null,
        "countryCode": "CZ",
        "website": null,
        "phone": null,
        "categoryName": "Pekařství",
        "url": "https://www.google.com/maps/place/Pek%C3%A1rna+Cukr%C3%A1rna+Bar/@50.0851719,14.3784917,17z/data=!3m1!4b1!4m6!3m5!1s0x470b950e0cfedd93:0xd7525850997a7bd1!8m2!3d50.0851719!4d14.3784917!16s%2Fg%2F11f5tzbktm?hl=cs&entry=ttu",
        "latitude": 50.0851719,
        "longitude": 14.3784917
    },
    {
        "title": "CUKRÁŘSTVÍ U MICHALA",
        "totalScore": 4.5,
        "reviewsCount": 91,
        "street": "Podolská 29",
        "city": "Praha 4",
        "state": null,
        "countryCode": "CZ",
        "website": null,
        "phone": "+420 241 430 260",
        "categoryName": "Cukrárna",
        "url": "https://www.google.com/maps/place/CUKR%C3%81%C5%98STV%C3%8D+U+MICHALA/@50.0590798,14.4207628,17z/data=!3m1!4b1!4m6!3m5!1s0x470b946896894feb:0x420a1056e26808c4!8m2!3d50.0590798!4d14.4207628!16s%2Fg%2F1tz74prx?hl=cs&entry=ttu",
        "latitude": 50.0590798,
        "longitude": 14.4207628
    },
    {
        "title": "Cukrárna Markéta",
        "totalScore": 4.4,
        "reviewsCount": 448,
        "street": "Radimova 2322/40",
        "city": "Praha 6",
        "state": null,
        "countryCode": "CZ",
        "website": "http://www.cukrarnamarketa.cz/",
        "phone": "+420 770 600 904",
        "categoryName": "Cukrárna",
        "url": "https://www.google.com/maps/place/Cukr%C3%A1rna+Mark%C3%A9ta/@50.0876462,14.3656466,17z/data=!3m1!4b1!4m6!3m5!1s0x470b95720bd2b1b3:0x499cb27478fa3106!8m2!3d50.0876462!4d14.3656466!16s%2Fg%2F11clvqpjn8?hl=cs&entry=ttu",
        "latitude": 50.0876462,
        "longitude": 14.3656466
    },
    {
        "title": "Cukrárna Amarilis Na Vackově",
        "totalScore": 4.4,
        "reviewsCount": 16,
        "street": "Olgy Havlové 2913/56",
        "city": "Praha 3",
        "state": null,
        "countryCode": "CZ",
        "website": "http://www.amarilis.cz/",
        "phone": "+420 222 514 467",
        "categoryName": "Cukrárna",
        "url": "https://www.google.com/maps/place/Cukr%C3%A1rna+Amarilis+Na+Vackov%C4%9B/@50.0877188,14.4794274,17z/data=!3m1!4b1!4m6!3m5!1s0x470b93bcd44fe329:0x8edb4dbaf7f9948!8m2!3d50.0877188!4d14.4794274!16s%2Fg%2F11rdbjdpsp?hl=cs&entry=ttu",
        "latitude": 50.0877188,
        "longitude": 14.4794274
    },
    {
        "title": "Cukrárna-Kavárna Vanilka",
        "totalScore": 4.5,
        "reviewsCount": 32,
        "street": "Starostrašnická 960",
        "city": "Strašnice",
        "state": null,
        "countryCode": "CZ",
        "website": null,
        "phone": null,
        "categoryName": "Kavárna / Čajovna",
        "url": "https://www.google.com/maps/place/Cukr%C3%A1rna-Kav%C3%A1rna+Vanilka/@50.0735282,14.4907267,17z/data=!3m1!4b1!4m6!3m5!1s0x470b9311951da30d:0x5ed0f98ffab7bae0!8m2!3d50.0735282!4d14.4907267!16s%2Fg%2F11csdb6lf4?hl=cs&entry=ttu",
        "latitude": 50.0735282,
        "longitude": 14.4907267
    },
    {
        "title": "Cukrárna Myšák",
        "totalScore": 4.3,
        "reviewsCount": 2168,
        "street": "710/31, Vodičkova",
        "city": "Nové Město",
        "state": null,
        "countryCode": "CZ",
        "website": "https://www.mysak.ambi.cz/",
        "phone": "+420 730 589 249",
        "categoryName": "Cukrárna",
        "url": "https://www.google.com/maps/place/Cukr%C3%A1rna+My%C5%A1%C3%A1k/@50.0812557,14.4247099,17z/data=!3m1!4b1!4m6!3m5!1s0x470b94ed704d3d61:0x524b4b78b2aa77d3!8m2!3d50.0812557!4d14.4247099!16s%2Fg%2F1hc3j6chw?hl=cs&entry=ttu",
        "latitude": 50.0812557,
        "longitude": 14.4247099
    },
    {
        "title": "Café & Cukrárna",
        "totalScore": 4.5,
        "reviewsCount": 106,
        "street": "Koněvova 1519/165",
        "city": "Praha 3",
        "state": null,
        "countryCode": "CZ",
        "website": "http://www.cafeacukrarna.cz/",
        "phone": "+420 722 553 609",
        "categoryName": "Cukrárna",
        "url": "https://www.google.com/maps/place/Caf%C3%A9+%26+Cukr%C3%A1rna/@50.0923302,14.480086,17z/data=!3m1!4b1!4m6!3m5!1s0x470b934505e62555:0x635e0515b93824fe!8m2!3d50.0923302!4d14.480086!16s%2Fg%2F11b740k858?hl=cs&entry=ttu",
        "latitude": 50.0923302,
        "longitude": 14.480086
    },
    {
        "title": "Sladká dílna - Petřiny",
        "totalScore": 4.7,
        "reviewsCount": 210,
        "street": "Na Petřinách 310/82",
        "city": "Praha 6",
        "state": null,
        "countryCode": "CZ",
        "website": "http://www.sladkadilna.cz/",
        "phone": "+420 775 033 564",
        "categoryName": "Cukrárna",
        "url": "https://www.google.com/maps/place/Sladk%C3%A1+d%C3%ADlna+-+Pet%C5%99iny/@50.0878416,14.342137,17z/data=!3m1!4b1!4m6!3m5!1s0x470bbf3b05dc71eb:0x7bd17b667c0157ad!8m2!3d50.0878416!4d14.342137!16s%2Fg%2F11pgsvc0fn?hl=cs&entry=ttu",
        "latitude": 50.0878416,
        "longitude": 14.342137
    },
    {
        "title": "cukrárna u Berušky Praha 9",
        "totalScore": 3.3,
        "reviewsCount": 80,
        "street": "Staroklánovická 470",
        "city": "Praha 9",
        "state": null,
        "countryCode": "CZ",
        "website": "http://www.cukrarnauberusky.cz/",
        "phone": "+420 774 889 609",
        "categoryName": "Cukrárna",
        "url": "https://www.google.com/maps/place/cukr%C3%A1rna+u+Beru%C5%A1ky+Praha+9/@50.0769601,14.6601963,17z/data=!3m1!4b1!4m6!3m5!1s0x470b8cb5ff368659:0x25c4344a7fef1655!8m2!3d50.0769601!4d14.6601963!16s%2Fg%2F12hyszl1t?hl=cs&entry=ttu",
        "latitude": 50.0769601,
        "longitude": 14.6601963
    },
    {
        "title": "Cukrárna Saint Tropez",
        "totalScore": 4.3,
        "reviewsCount": 760,
        "street": "Karmelitská 20",
        "city": "Malá Strana",
        "state": null,
        "countryCode": "CZ",
        "website": "http://cukrarnatropez.cz/",
        "phone": "+420 603 333 338",
        "categoryName": "Francouzská cukrárna",
        "url": "https://www.google.com/maps/place/Cukr%C3%A1rna+Saint+Tropez/@50.0866101,14.4041001,17z/data=!3m1!4b1!4m6!3m5!1s0x470b94f254ad6f95:0x6e6e786730358840!8m2!3d50.0866101!4d14.4041001!16s%2Fg%2F1tkjjxt0?hl=cs&entry=ttu",
        "latitude": 50.0866101,
        "longitude": 14.4041001
    },
    {
        "title": "Cukrárna na Blatově",
        "totalScore": 4.4,
        "reviewsCount": 53,
        "street": "Račiněveská 2444",
        "city": "Praha 21",
        "state": null,
        "countryCode": "CZ",
        "website": null,
        "phone": "+420 737 623 611",
        "categoryName": "Cukrárna",
        "url": "https://www.google.com/maps/place/Cukr%C3%A1rna+na+Blatov%C4%9B/@50.0774653,14.6494883,17z/data=!3m1!4b1!4m6!3m5!1s0x470b8d92c308e2a9:0xa09a7cc1dae66b3f!8m2!3d50.0774653!4d14.6494883!16s%2Fg%2F11fjwzqb22?hl=cs&entry=ttu",
        "latitude": 50.0774653,
        "longitude": 14.6494883
    },
    {
        "title": "Svatováclavská cukrárna",
        "totalScore": 4.4,
        "reviewsCount": 194,
        "street": "Václavská pasáž",
        "city": "Nové Město",
        "state": null,
        "countryCode": "CZ",
        "website": null,
        "phone": "+420 224 916 774",
        "categoryName": "Cukrárna",
        "url": "https://www.google.com/maps/place/Svatov%C3%A1clavsk%C3%A1+cukr%C3%A1rna/@50.0745455,14.4186454,17z/data=!3m1!4b1!4m6!3m5!1s0x470b94f440e85205:0x3cc92d5e9d94d4ca!8m2!3d50.0745455!4d14.4186454!16s%2Fg%2F11c61j713m?hl=cs&entry=ttu",
        "latitude": 50.0745455,
        "longitude": 14.4186454
    },
    {
        "title": "Cukrárna Lilly",
        "totalScore": 3.9,
        "reviewsCount": 203,
        "street": "Litevská 1273",
        "city": "Praha 10-Vršovice",
        "state": null,
        "countryCode": "CZ",
        "website": "http://www.cukrarnalilly.cz/",
        "phone": "+420 774 201 040",
        "categoryName": "Francouzská cukrárna",
        "url": "https://www.google.com/maps/place/Cukr%C3%A1rna+Lilly/@50.0715407,14.4773848,17z/data=!3m1!4b1!4m6!3m5!1s0x470b9372f93708a3:0x2d4c718162f038be!8m2!3d50.0715407!4d14.4773848!16s%2Fg%2F1tf302_0?hl=cs&entry=ttu",
        "latitude": 50.0715407,
        "longitude": 14.4773848
    },
    {
        "title": "Cukrárna Tea",
        "totalScore": 4.2,
        "reviewsCount": 93,
        "street": "U Hostavického potoka 830",
        "city": "Praha 14",
        "state": null,
        "countryCode": "CZ",
        "website": null,
        "phone": "+420 605 218 447",
        "categoryName": "Kavárna / Čajovna",
        "url": "https://www.google.com/maps/place/Cukr%C3%A1rna+Tea/@50.082106,14.5600112,17z/data=!3m1!4b1!4m6!3m5!1s0x470b93771750867d:0xfcc2164132609e3d!8m2!3d50.082106!4d14.5600112!16s%2Fg%2F11j8hhr8_f?hl=cs&entry=ttu",
        "latitude": 50.082106,
        "longitude": 14.5600112
    },
    {
        "title": "Cukrárna No. 3",
        "totalScore": 4.4,
        "reviewsCount": 29,
        "street": "K Borovíčku 104/1",
        "city": "Praha-Kunratice",
        "state": null,
        "countryCode": "CZ",
        "website": "https://cukrarnano3.business.site/",
        "phone": "+420 604 265 611",
        "categoryName": "Cukrárna",
        "url": "https://www.google.com/maps/place/Cukr%C3%A1rna+No.+3/@50.013972,14.485144,17z/data=!3m1!4b1!4m6!3m5!1s0x470b91536864d4ef:0x49482e5543e1e121!8m2!3d50.013972!4d14.485144!16s%2Fg%2F11g0kgstpr?hl=cs&entry=ttu",
        "latitude": 50.013972,
        "longitude": 14.485144
    },
    {
        "title": "Cukrárna – kavárna Studánka",
        "totalScore": 4.4,
        "reviewsCount": 30,
        "street": "3, Na Zderaze 1947",
        "city": "Nové Město",
        "state": null,
        "countryCode": "CZ",
        "website": "http://www.cukrarna-studanka.cz/",
        "phone": "+420 224 923 916",
        "categoryName": "Cukrárna",
        "url": "https://www.google.com/maps/place/Cukr%C3%A1rna+%E2%80%93+kav%C3%A1rna+Stud%C3%A1nka/@50.0761356,14.4163302,17z/data=!3m1!4b1!4m6!3m5!1s0x470b94f6ad096ddf:0x3fc4ae828beb4050!8m2!3d50.0761356!4d14.4163302!16s%2Fg%2F1thtbvsq?hl=cs&entry=ttu",
        "latitude": 50.0761356,
        "longitude": 14.4163302
    },
    {
        "title": "Cukrárna Fanynka",
        "totalScore": 4.2,
        "reviewsCount": 92,
        "street": "Hábova 2345/7",
        "city": "Praha 13-Stodůlky",
        "state": null,
        "countryCode": "CZ",
        "website": null,
        "phone": "+420 739 323 948",
        "categoryName": "Cukrárna",
        "url": "https://www.google.com/maps/place/Cukr%C3%A1rna+Fanynka/@50.0466104,14.3106041,17z/data=!3m1!4b1!4m6!3m5!1s0x470bbe068bdbc91f:0x87a6a7d73ab0460c!8m2!3d50.0466104!4d14.3106041!16s%2Fg%2F11c5xt1lcg?hl=cs&entry=ttu",
        "latitude": 50.0466104,
        "longitude": 14.3106041
    },
    {
        "title": "Italská cukrárna Amarena",
        "totalScore": 3.6,
        "reviewsCount": 10,
        "street": "Roztylská 2232/17",
        "city": "Praha 11-Chodov",
        "state": null,
        "countryCode": "CZ",
        "website": "http://www.cukrarnaamarena.cz/",
        "phone": "+420 774 577 857",
        "categoryName": "Cukrárna",
        "url": "https://www.google.com/maps/place/Italsk%C3%A1+cukr%C3%A1rna+Amarena/@50.0310942,14.4903543,17z/data=!3m1!4b1!4m6!3m5!1s0x470b932d956762d5:0x29ebc1ca08ca5bc!8m2!3d50.0310942!4d14.4903543!16s%2Fg%2F11h5vk1pmn?hl=cs&entry=ttu",
        "latitude": 50.0310942,
        "longitude": 14.4903543
    },
    {
        "title": "Cukrárna U knoflíčků",
        "totalScore": 4.4,
        "reviewsCount": 653,
        "street": "Újezd 412",
        "city": "Malá Strana",
        "state": null,
        "countryCode": "CZ",
        "website": "http://www.uknoflicku.cz/",
        "phone": "+420 777 235 139",
        "categoryName": "Prodejna zákusků",
        "url": "https://www.google.com/maps/place/Cukr%C3%A1rna+U+knofl%C3%AD%C4%8Dk%C5%AF/@50.0826389,14.4042873,17z/data=!3m1!4b1!4m6!3m5!1s0x470b94fcb69b9377:0x16e8b135e44ed30a!8m2!3d50.0826389!4d14.4042873!16s%2Fg%2F1tlw7svf?hl=cs&entry=ttu",
        "latitude": 50.0826389,
        "longitude": 14.4042873
    },
    {
        "title": "Cukrárna Pod Marjánkou",
        "totalScore": 4.8,
        "reviewsCount": 27,
        "street": "Bělohorská 1393/44",
        "city": "Praha 6-Břevnov",
        "state": null,
        "countryCode": "CZ",
        "website": null,
        "phone": "+420 704 407 363",
        "categoryName": "Cukrárna",
        "url": "https://www.google.com/maps/place/Cukr%C3%A1rna+Pod+Marj%C3%A1nkou/@50.0848914,14.3767403,17z/data=!3m1!4b1!4m6!3m5!1s0x470b956fd942b2f3:0x7068a9fa663a3a5!8m2!3d50.0848914!4d14.3767403!16s%2Fg%2F11hyxqk949?hl=cs&entry=ttu",
        "latitude": 50.0848914,
        "longitude": 14.3767403
    },
    {
        "title": "Cukrárna Ledo - Novotný J.",
        "totalScore": 3.8,
        "reviewsCount": 5,
        "street": "Dunovského 178",
        "city": "Praha 11-Chodov",
        "state": null,
        "countryCode": "CZ",
        "website": null,
        "phone": "+420 267 913 395",
        "categoryName": "Prodejna zákusků",
        "url": "https://www.google.com/maps/place/Cukr%C3%A1rna+Ledo+-+Novotn%C3%BD+J./@50.0340281,14.5032349,17z/data=!3m1!4b1!4m6!3m5!1s0x470b923734dcafa1:0x9974feb531536fae!8m2!3d50.0340281!4d14.5032349!16s%2Fg%2F1vbnn375?hl=cs&entry=ttu",
        "latitude": 50.0340281,
        "longitude": 14.5032349
    },
    {
        "title": "Domácí dezerty",
        "totalScore": 5,
        "reviewsCount": 11,
        "street": "Květoslavova 241/13",
        "city": "Praha-Dubeč",
        "state": null,
        "countryCode": "CZ",
        "website": "https://www.domacidezerty.cz/",
        "phone": "+420 773 266 991",
        "categoryName": "Pečení svatebního cukroví",
        "url": "https://www.google.com/maps/place/Dom%C3%A1c%C3%AD+dezerty/@50.059263,14.5846986,17z/data=!3m1!4b1!4m6!3m5!1s0x470b8d4f26767611:0x98b442a546581a18!8m2!3d50.059263!4d14.5846986!16s%2Fg%2F11n5n3ntyg?hl=cs&entry=ttu",
        "latitude": 50.059263,
        "longitude": 14.5846986
    },
    {
        "title": "Cukrarna Bruno",
        "totalScore": 4,
        "reviewsCount": 198,
        "street": "Bělohorská 250",
        "city": "Praha 6-Břevnov",
        "state": null,
        "countryCode": "CZ",
        "website": "http://www.cukrarnabruno.cz/",
        "phone": "+420 774 055 042",
        "categoryName": "Kavárna / Čajovna",
        "url": "https://www.google.com/maps/place/Cukrarna+Bruno/@50.0837792,14.3720962,17z/data=!3m1!4b1!4m6!3m5!1s0x470b950ce61a4e67:0xa2fa3253500291b5!8m2!3d50.0837792!4d14.3720962!16s%2Fg%2F11csrqk0jv?hl=cs&entry=ttu",
        "latitude": 50.0837792,
        "longitude": 14.3720962
    },
    {
        "title": "Zelenkova cukrárna",
        "totalScore": 4.4,
        "reviewsCount": 43,
        "street": "Topolová 2915",
        "city": "Praha 10",
        "state": null,
        "countryCode": "CZ",
        "website": null,
        "phone": "+420 702 088 384",
        "categoryName": "Prodej zmrzliny",
        "url": "https://www.google.com/maps/place/Zelenkova+cukr%C3%A1rna/@50.056555,14.5077058,17z/data=!3m1!4b1!4m6!3m5!1s0x470b932d44c52aef:0xab09932d2a23921a!8m2!3d50.056555!4d14.5077058!16s%2Fg%2F11kc7lgwlt?hl=cs&entry=ttu",
        "latitude": 50.056555,
        "longitude": 14.5077058
    },
    {
        "title": "Ovocný Světozor",
        "totalScore": 3.5,
        "reviewsCount": 48,
        "street": "Plzeňská 8",
        "city": "Praha 5-Anděl",
        "state": null,
        "countryCode": "CZ",
        "website": "http://ovocnysvetozor.cz/",
        "phone": "+420 778 444 124",
        "categoryName": "Cukrárna",
        "url": "https://www.google.com/maps/place/Ovocn%C3%BD+Sv%C4%9Btozor/@50.0722406,14.4022645,17z/data=!3m1!4b1!4m6!3m5!1s0x470b95ef9b8a7ad9:0xb10276ffbcbd898d!8m2!3d50.0722406!4d14.4022645!16s%2Fg%2F11pxlvjhtz?hl=cs&entry=ttu",
        "latitude": 50.0722406,
        "longitude": 14.4022645
    },
    {
        "title": "Cukrárna - Kavárna Adélka",
        "totalScore": 4.6,
        "reviewsCount": 64,
        "street": "Matúškova 831/1",
        "city": "Praha 11-Háje",
        "state": null,
        "countryCode": "CZ",
        "website": "https://www.cukrarnakavarnaadelka.cz/",
        "phone": "+420 608 309 579",
        "categoryName": "Kavárna / Čajovna",
        "url": "https://www.google.com/maps/place/Cukr%C3%A1rna+-+Kav%C3%A1rna+Ad%C3%A9lka/@50.0374882,14.515467,17z/data=!3m1!4b1!4m6!3m5!1s0x470b934323b1b835:0xa2d14c5f2f4b3301!8m2!3d50.0374882!4d14.515467!16s%2Fg%2F11k_3qcyqq?hl=cs&entry=ttu",
        "latitude": 50.0374882,
        "longitude": 14.515467
    },
    {
        "title": "Cukrárna Hájek & Hájková s.r.o.",
        "totalScore": 4,
        "reviewsCount": 1473,
        "street": "32, Nádražní 762",
        "city": "Praha 5-Smíchov",
        "state": null,
        "countryCode": "CZ",
        "website": "http://www.cukrarna-hajek-hajkova.cz/",
        "phone": "+420 730 150 839",
        "categoryName": "Prodejna zákusků",
        "url": "https://www.google.com/maps/place/Cukr%C3%A1rna+H%C3%A1jek+%26+H%C3%A1jkov%C3%A1+s.r.o./@50.0617213,14.4094364,17z/data=!3m1!4b1!4m6!3m5!1s0x470b94579deef899:0x368a9c3216b7f52a!8m2!3d50.0617213!4d14.4094364!16s%2Fg%2F1hc3lmx0r?hl=cs&entry=ttu",
        "latitude": 50.0617213,
        "longitude": 14.4094364
    },
    {
        "title": "CUKRÁRNA Brodského",
        "totalScore": 4.8,
        "reviewsCount": 42,
        "street": "Brodského 1673/13",
        "city": "Praha 11-Chodov",
        "state": null,
        "countryCode": "CZ",
        "website": "https://www.firmy.cz/detail/13220484-cukrarna-brodskeho-praha-chodov.html",
        "phone": "+420 222 985 415",
        "categoryName": "Prodejna zákusků",
        "url": "https://www.google.com/maps/place/CUKR%C3%81RNA+Brodsk%C3%A9ho/@50.0378308,14.5041452,17z/data=!3m1!4b1!4m6!3m5!1s0x470b9237c8669673:0xddf20e1ad2479d92!8m2!3d50.0378308!4d14.5041452!16s%2Fg%2F11gb3z3562?hl=cs&entry=ttu",
        "latitude": 50.0378308,
        "longitude": 14.5041452
    },
    {
        "title": "Cukrárna Emilly",
        "totalScore": 4.6,
        "reviewsCount": 27,
        "street": "Bělohorská 134",
        "city": "Praha 6-Břevnov",
        "state": null,
        "countryCode": "CZ",
        "website": null,
        "phone": "+420 220 511 205",
        "categoryName": "Cukrárna",
        "url": "https://www.google.com/maps/place/Cukr%C3%A1rna+Emilly/@50.0839141,14.3634034,17z/data=!3m1!4b1!4m6!3m5!1s0x470b9573e5f6b84f:0x7943514322c60649!8m2!3d50.0839141!4d14.3634034!16s%2Fg%2F11g0zx66wp?hl=cs&entry=ttu",
        "latitude": 50.0839141,
        "longitude": 14.3634034
    },
    {
        "title": "Cukrárna Bruno",
        "totalScore": 1,
        "reviewsCount": 3,
        "street": "Bělohorská 2428/205",
        "city": "Praha 6",
        "state": null,
        "countryCode": "CZ",
        "website": null,
        "phone": null,
        "categoryName": "Prodejna zákusků",
        "url": "https://www.google.com/maps/place/Cukr%C3%A1rna+Bruno/@50.0773286,14.339479,17z/data=!3m1!4b1!4m6!3m5!1s0x470b951561e75069:0xd529963ec707874c!8m2!3d50.0773286!4d14.339479!16s%2Fg%2F11shp0nx0n?hl=cs&entry=ttu",
        "latitude": 50.0773286,
        "longitude": 14.339479
    },
    {
        "title": "Cukrárna Bany",
        "totalScore": 4.7,
        "reviewsCount": 94,
        "street": "OC Park Hostivař, Švehlova 1391",
        "city": "Praha 15",
        "state": null,
        "countryCode": "CZ",
        "website": "http://www.parkhostivar.cz/obchod/cukrarna-bany",
        "phone": "+420 602 287 475",
        "categoryName": "Cukrárna",
        "url": "https://www.google.com/maps/place/Cukr%C3%A1rna+Bany/@50.053469,14.5176387,17z/data=!3m1!4b1!4m6!3m5!1s0x470b92598e653c9d:0x58d839f36460bf01!8m2!3d50.053469!4d14.5176387!16s%2Fg%2F11bxfwn9r9?hl=cs&entry=ttu",
        "latitude": 50.053469,
        "longitude": 14.5176387
    },
    {
        "title": "Italská cukrárna Amarena",
        "totalScore": 4.1,
        "reviewsCount": 42,
        "street": "Plzeňská 5/8",
        "city": "Praha 5-Anděl",
        "state": null,
        "countryCode": "CZ",
        "website": "http://cukrarna-amarena.cz/",
        "phone": "+420 775 008 090",
        "categoryName": "Cukrárna",
        "url": "https://www.google.com/maps/place/Italsk%C3%A1+cukr%C3%A1rna+Amarena/@50.0723936,14.4030815,17z/data=!3m1!4b1!4m6!3m5!1s0x470b945625d8d201:0x15c86b2aead68388!8m2!3d50.0723936!4d14.4030815!16s%2Fg%2F1ptvrkxr_?hl=cs&entry=ttu",
        "latitude": 50.0723936,
        "longitude": 14.4030815
    },
    {
        "title": "Cukrárna",
        "totalScore": 4.5,
        "reviewsCount": 29,
        "street": "Vajdova 1047",
        "city": "Praha 15-Hostivař",
        "state": null,
        "countryCode": "CZ",
        "website": null,
        "phone": "+420 272 924 383",
        "categoryName": "Cukrárna",
        "url": "https://www.google.com/maps/place/Cukr%C3%A1rna/@50.047416,14.5201962,17z/data=!3m1!4b1!4m6!3m5!1s0x470b925cad3a8451:0x48fe384aca9e46d0!8m2!3d50.047416!4d14.5201962!16s%2Fg%2F11dflk1vn6?hl=cs&entry=ttu",
        "latitude": 50.047416,
        "longitude": 14.5201962
    },
    {
        "title": "Cukrářství Hostivař",
        "totalScore": 4.5,
        "reviewsCount": 101,
        "street": "Pražská 7/11",
        "city": "Praha 15-Hostivař",
        "state": null,
        "countryCode": "CZ",
        "website": "https://www.cukrarstvi-hostivar.cz/",
        "phone": "+420 604 332 332",
        "categoryName": "Cukrárna",
        "url": "https://www.google.com/maps/place/Cukr%C3%A1%C5%99stv%C3%AD+Hostiva%C5%99/@50.0511866,14.5232298,17z/data=!3m1!4b1!4m6!3m5!1s0x470b93ef13900ef3:0xcc10e2fda5c6ce32!8m2!3d50.0511866!4d14.5232298!16s%2Fg%2F11fk1j1tw7?hl=cs&entry=ttu",
        "latitude": 50.0511866,
        "longitude": 14.5232298
    },
    {
        "title": "Zámecká cukrárna",
        "totalScore": 4.5,
        "reviewsCount": 67,
        "street": "Slivenecká 77/1",
        "city": "Praha 5",
        "state": null,
        "countryCode": "CZ",
        "website": "https://www.cukrarnahlubocepy.cz/",
        "phone": "+420 606 519 478",
        "categoryName": "Kavárna",
        "url": "https://www.google.com/maps/place/Z%C3%A1meck%C3%A1+cukr%C3%A1rna/@50.0411736,14.3940996,17z/data=!3m1!4b1!4m6!3m5!1s0x470b955e5895460f:0xafbafa77e43a97e2!8m2!3d50.0411736!4d14.3940996!16s%2Fg%2F11hfsc69fb?hl=cs&entry=ttu",
        "latitude": 50.0411736,
        "longitude": 14.3940996
    },
    {
        "title": "Cukrárna s kavárnou Domácí Dezerty",
        "totalScore": 4.9,
        "reviewsCount": 11,
        "street": "Proutěná 427/28",
        "city": "Praha-Újezd",
        "state": null,
        "countryCode": "CZ",
        "website": "http://domacidezerty.cz/",
        "phone": "+420 776 177 880",
        "categoryName": "Prodej zmrzliny",
        "url": "https://www.google.com/maps/place/Cukr%C3%A1rna+s+kav%C3%A1rnou+Dom%C3%A1c%C3%AD+Dezerty/@50.0224626,14.5252318,17z/data=!3m1!4b1!4m6!3m5!1s0x470b93dabd11de9b:0x90b0e4f999f4da35!8m2!3d50.0224626!4d14.5252318!16s%2Fg%2F11t_ky110d?hl=cs&entry=ttu",
        "latitude": 50.0224626,
        "longitude": 14.5252318
    },
    {
        "title": "La Zmrzka Nové Butovice",
        "totalScore": 4.6,
        "reviewsCount": 90,
        "street": "Petržílkova 2835",
        "city": "Praha 13",
        "state": null,
        "countryCode": "CZ",
        "website": "http://lazmrzka.cz/",
        "phone": "+420 725 726 727",
        "categoryName": "Prodej zmrzliny",
        "url": "https://www.google.com/maps/place/La+Zmrzka+Nov%C3%A9+Butovice/@50.0513138,14.3492698,17z/data=!3m1!4b1!4m6!3m5!1s0x470b957cfddce2e9:0xa709e08d396899e7!8m2!3d50.0513138!4d14.3492698!16s%2Fg%2F11jpqn7pb_?hl=cs&entry=ttu",
        "latitude": 50.0513138,
        "longitude": 14.3492698
    },
    {
        "title": "V sedmém nebi",
        "totalScore": 4.4,
        "reviewsCount": 107,
        "street": "Hostivařská 22",
        "city": "Praha 15",
        "state": null,
        "countryCode": "CZ",
        "website": "https://m.facebook.com/Cukr%C3%A1rna-V-sedm%C3%A9m-nebi-639506186152110/#!/Cukr%C3%A1rna-V-sedm%C3%A9m-nebi-639506186152110/",
        "phone": "+420 604 215 191",
        "categoryName": "Cukrárna",
        "url": "https://www.google.com/maps/place/V+sedm%C3%A9m+nebi/@50.0520929,14.5284265,17z/data=!3m1!4b1!4m6!3m5!1s0x470b925e0572f9fd:0xeaef933e3aa30e3a!8m2!3d50.0520929!4d14.5284265!16s%2Fg%2F11cn9dj0gj?hl=cs&entry=ttu",
        "latitude": 50.0520929,
        "longitude": 14.5284265
    },
    {
        "title": "Cukrárna Malvazinky (Snídejte Šampaňské)",
        "totalScore": 4.3,
        "reviewsCount": 135,
        "street": "Xaveriova 1941/56",
        "city": "Praha 5",
        "state": null,
        "countryCode": "CZ",
        "website": null,
        "phone": "+420 777 242 942",
        "categoryName": "Prodejna zákusků",
        "url": "https://www.google.com/maps/place/Cukr%C3%A1rna+Malvazinky+(Sn%C3%ADdejte+%C5%A0ampa%C5%88sk%C3%A9)/@50.0629746,14.3899874,17z/data=!3m1!4b1!4m6!3m5!1s0x470b944d42168fdf:0xbee0e285f1aec38c!8m2!3d50.0629746!4d14.3899874!16s%2Fg%2F1pp2x8lgx?hl=cs&entry=ttu",
        "latitude": 50.0629746,
        "longitude": 14.3899874
    },
    {
        "title": "Cukrárna Amarilis Háje",
        "totalScore": 4.3,
        "reviewsCount": 538,
        "street": "Arkalycká 757",
        "city": "Praha 11-Háje",
        "state": null,
        "countryCode": "CZ",
        "website": "http://www.amarilis.cz/",
        "phone": "+420 272 941 898",
        "categoryName": "Cukrárna",
        "url": "https://www.google.com/maps/place/Cukr%C3%A1rna+Amarilis+H%C3%A1je/@50.0318583,14.5288848,17z/data=!3m1!4b1!4m6!3m5!1s0x470b9213ca45cb53:0xd0a476d6e8656f74!8m2!3d50.0318583!4d14.5288848!16s%2Fg%2F11gzp15j5?hl=cs&entry=ttu",
        "latitude": 50.0318583,
        "longitude": 14.5288848
    },
    {
        "title": "cukrárna Věrka - cukrárna s tradicí",
        "totalScore": 4.7,
        "reviewsCount": 94,
        "street": "8, Křešínská 131",
        "city": "Praha 22",
        "state": null,
        "countryCode": "CZ",
        "website": null,
        "phone": "+420 267 710 188",
        "categoryName": "Cukrárna",
        "url": "https://www.google.com/maps/place/cukr%C3%A1rna+V%C4%9Brka+-+cukr%C3%A1rna+s+tradic%C3%AD/@50.0318003,14.5981323,17z/data=!3m1!4b1!4m6!3m5!1s0x470b8db6b19bae3b:0xb1bc88f101de7f3a!8m2!3d50.0318003!4d14.5981323!16s%2Fg%2F1hc6q42dl?hl=cs&entry=ttu",
        "latitude": 50.0318003,
        "longitude": 14.5981323
    },
    {
        "title": "Bertíkova cukrárna Praha 10",
        "totalScore": 3.1,
        "reviewsCount": 26,
        "street": "Hornoměcholupská 763/10",
        "city": "Praha 15-Hostivař",
        "state": null,
        "countryCode": "CZ",
        "website": "http://bertikovacukrarna.cz/",
        "phone": "+420 733 144 311",
        "categoryName": "Cukrárna",
        "url": "https://www.google.com/maps/place/Bert%C3%ADkova+cukr%C3%A1rna+Praha+10/@50.0442471,14.5689524,17z/data=!3m1!4b1!4m6!3m5!1s0x470b9260c8c2ebeb:0x14f72c478feae523!8m2!3d50.0442471!4d14.5689524!16s%2Fg%2F11c5sv_ff_?hl=cs&entry=ttu",
        "latitude": 50.0442471,
        "longitude": 14.5689524
    },
    {
        "title": "CUKRÁRNA HÁJEK&HÁJKOVÁ OC GALERIE NOVÉ BUTOVICE ( přízemí galerie )",
        "totalScore": 3.9,
        "reviewsCount": 10,
        "street": "Radlická 520/117",
        "city": "Praha 5-Jinonice",
        "state": null,
        "countryCode": "CZ",
        "website": "http://www.cukrarna-hajek-hajkova.cz/",
        "phone": "+420 703 143 501",
        "categoryName": "Cukrárna",
        "url": "https://www.google.com/maps/place/CUKR%C3%81RNA+H%C3%81JEK%26H%C3%81JKOV%C3%81+OC+GALERIE+NOV%C3%89+BUTOVICE+(+p%C5%99%C3%ADzem%C3%AD+galerie+)/@50.0476058,14.3537456,17z/data=!3m1!4b1!4m6!3m5!1s0x470b952fe239eb3d:0xcee2db3b821077a1!8m2!3d50.0476058!4d14.3537456!16s%2Fg%2F11swv98th1?hl=cs&entry=ttu",
        "latitude": 50.0476058,
        "longitude": 14.3537456
    },
    {
        "title": "Pekárna-Cukrárna Ječmínek",
        "totalScore": 3.3,
        "reviewsCount": 3,
        "street": "Metro Nové Butovice vestibul metra, autob.nádr. 158 00",
        "city": "Praha 13",
        "state": null,
        "countryCode": "CZ",
        "website": null,
        "phone": null,
        "categoryName": "Pekařství",
        "url": "https://www.google.com/maps/place/Pek%C3%A1rna-Cukr%C3%A1rna+Je%C4%8Dm%C3%ADnek/@50.0507692,14.3509213,17z/data=!3m1!4b1!4m6!3m5!1s0x470b954fadfea8b7:0xf94e50e4eb00170f!8m2!3d50.0507692!4d14.3509213!16s%2Fg%2F11gy07vx01?hl=cs&entry=ttu",
        "latitude": 50.0507692,
        "longitude": 14.3509213
    },
    {
        "title": "Cukrárna Paraplíčko",
        "totalScore": 3.9,
        "reviewsCount": 9,
        "street": "Morseova 253",
        "city": "Praha-Petrovice",
        "state": null,
        "countryCode": "CZ",
        "website": "https://m.facebook.com/pages/Cukr%C3%A1rna-Parapl%C3%AD%C4%8Dko/153189688073768#!/pages/Cukr%C3%A1rna-Parapl%C3%AD%C4%8Dko/153189688073768",
        "phone": "+420 274 867 374",
        "categoryName": "Kavárna / Čajovna",
        "url": "https://www.google.com/maps/place/Cukr%C3%A1rna+Parapl%C3%AD%C4%8Dko/@50.0357361,14.5580854,17z/data=!3m1!4b1!4m6!3m5!1s0x470b8d8c7247fe41:0x5676169b077e861c!8m2!3d50.0357361!4d14.5580854!16s%2Fg%2F11b6v9b6bp?hl=cs&entry=ttu",
        "latitude": 50.0357361,
        "longitude": 14.5580854
    },
    {
        "title": "Zelenkova cukrárna",
        "totalScore": 4,
        "reviewsCount": 114,
        "street": "Veronské nám. 403",
        "city": "Praha 15",
        "state": null,
        "countryCode": "CZ",
        "website": "http://www.zelenkovacukrarna.cz/",
        "phone": "+420 702 088 383",
        "categoryName": "Cukrárna",
        "url": "https://www.google.com/maps/place/Zelenkova+cukr%C3%A1rna/@50.0408642,14.5593564,17z/data=!3m1!4b1!4m6!3m5!1s0x470b8d88c512a877:0xc2fb2302db3bfa16!8m2!3d50.0408642!4d14.5593564!16s%2Fg%2F1pp2x7ys2?hl=cs&entry=ttu",
        "latitude": 50.0408642,
        "longitude": 14.5593564
    },
    {
        "title": "Jsem Cukrář",
        "totalScore": null,
        "reviewsCount": 0,
        "street": "Ovčí hájek 2",
        "city": "Praha 13",
        "state": null,
        "countryCode": "CZ",
        "website": null,
        "phone": "+420 725 766 395",
        "categoryName": "Cukrárna",
        "url": "https://www.google.com/maps/place/Jsem+Cukr%C3%A1%C5%99/@50.0500151,14.349282,17z/data=!3m1!4b1!4m6!3m5!1s0x470b95b7a0bf30c7:0x47f744b4d3d63d3b!8m2!3d50.0500151!4d14.349282!16s%2Fg%2F11n5wp1sq9?hl=cs&entry=ttu",
        "latitude": 50.0500151,
        "longitude": 14.349282
    },
    {
        "title": "Dorty a Dortiky",
        "totalScore": 4.3,
        "reviewsCount": 22,
        "street": "Ovčí hájek 2153/2",
        "city": "Praha 13-Stodůlky",
        "state": null,
        "countryCode": "CZ",
        "website": "http://www.dortyadortiky.cz/",
        "phone": "+420 725 766 395",
        "categoryName": "Cukrárna",
        "url": "https://www.google.com/maps/place/Dorty+a+Dortiky/@50.049832,14.3494099,17z/data=!3m1!4b1!4m6!3m5!1s0x470b95e844d770a3:0x1862a83b3de71eb6!8m2!3d50.049832!4d14.3494099!16s%2Fg%2F11gdsfvsbq?hl=cs&entry=ttu",
        "latitude": 50.049832,
        "longitude": 14.3494099
    },
    {
        "title": "Zavalianis Sweet",
        "totalScore": 4.7,
        "reviewsCount": 406,
        "street": "62, Musílkova 335",
        "city": "Praha 5",
        "state": null,
        "countryCode": "CZ",
        "website": "http://www.zavalianissweet.cz/",
        "phone": "+420 725 860 351",
        "categoryName": "Cukrárna",
        "url": "https://www.google.com/maps/place/Zavalianis+Sweet/@50.0676494,14.3666353,17z/data=!3m1!4b1!4m6!3m5!1s0x470b95a33900728f:0xcc3ca0fa4ca9b86b!8m2!3d50.0676494!4d14.3666353!16s%2Fg%2F11b76vycnx?hl=cs&entry=ttu",
        "latitude": 50.0676494,
        "longitude": 14.3666353
    },
    {
        "title": "Cukrárna Hájek & Hájková",
        "totalScore": 3.8,
        "reviewsCount": 241,
        "street": "15, Petržílkova 2583",
        "city": "Praha 13",
        "state": null,
        "countryCode": "CZ",
        "website": "http://www.cukrarna-hajek-hajkova.cz/",
        "phone": "+420 730 150 840",
        "categoryName": "Cukrárna",
        "url": "https://www.google.com/maps/place/Cukr%C3%A1rna+H%C3%A1jek+%26+H%C3%A1jkov%C3%A1/@50.0503871,14.3453691,17z/data=!3m1!4b1!4m6!3m5!1s0x470b95ef2c84c2f3:0xf83cf6ab8b42fe04!8m2!3d50.0503871!4d14.3453691!16s%2Fg%2F11bc7p20zq?hl=cs&entry=ttu",
        "latitude": 50.0503871,
        "longitude": 14.3453691
    },
    {
        "title": "Sladká Pohotovost",
        "totalScore": 4.6,
        "reviewsCount": 36,
        "street": "Hábova 2345/7",
        "city": "Praha 13-Stodůlky",
        "state": null,
        "countryCode": "CZ",
        "website": "https://www.sladkapohotovost.cz/",
        "phone": "+420 739 323 948",
        "categoryName": "Cukrárna",
        "url": "https://www.google.com/maps/place/Sladk%C3%A1+Pohotovost/@50.0466052,14.3107516,17z/data=!3m1!4b1!4m6!3m5!1s0x470bbe068c155555:0x4bd7553460b3912f!8m2!3d50.0466052!4d14.3107516!16s%2Fg%2F11hsk3yhcw?hl=cs&entry=ttu",
        "latitude": 50.0466052,
        "longitude": 14.3107516
    },
    {
        "title": "La Zmrzka Stodůlky",
        "totalScore": 4.6,
        "reviewsCount": 438,
        "street": "Náměstí Junkových 2870/3",
        "city": "Praha 13",
        "state": null,
        "countryCode": "CZ",
        "website": "http://lazmrzka.cz/",
        "phone": "+420 725 726 727",
        "categoryName": "Prodej zmrzliny",
        "url": "https://www.google.com/maps/place/La+Zmrzka+Stod%C5%AFlky/@50.0462191,14.3037666,17z/data=!3m1!4b1!4m6!3m5!1s0x470bbe08f6b5e831:0xaef1a0b26c88514e!8m2!3d50.0462191!4d14.3037666!16s%2Fg%2F11df7jy8hh?hl=cs&entry=ttu",
        "latitude": 50.0462191,
        "longitude": 14.3037666
    },
    {
        "title": "Ovocný Světozor",
        "totalScore": 4.4,
        "reviewsCount": 726,
        "street": "Plzeňská 1234/279",
        "city": "Praha 13-Stodůlky",
        "state": null,
        "countryCode": "CZ",
        "website": "https://www.ovocnysvetozor.cz/",
        "phone": "+420 774 444 868",
        "categoryName": "Cukrárna",
        "url": "https://www.google.com/maps/place/Ovocn%C3%BD+Sv%C4%9Btozor/@50.0627881,14.3142642,17z/data=!3m1!4b1!4m6!3m5!1s0x470bbe17fdacebbd:0x2260f5a7bb7cd98e!8m2!3d50.0627881!4d14.3142642!16s%2Fg%2F11f3vdg47_?hl=cs&entry=ttu",
        "latitude": 50.0627881,
        "longitude": 14.3142642
    },
    {
        "title": "Ovocný Světozor",
        "totalScore": 4.5,
        "reviewsCount": 707,
        "street": "15, Havlíčkova 1682",
        "city": "Nové Město",
        "state": null,
        "countryCode": "CZ",
        "website": "http://www.ovocnysvetozor.cz/",
        "phone": "+420 774 444 873",
        "categoryName": "Cukrárna",
        "url": "https://www.google.com/maps/place/Ovocn%C3%BD+Sv%C4%9Btozor/@50.0893259,14.432248,17z/data=!3m1!4b1!4m6!3m5!1s0x470b94955001a161:0x62de9eee8308a9be!8m2!3d50.0893259!4d14.432248!16s%2Fg%2F1tpljfzh?hl=cs&entry=ttu",
        "latitude": 50.0893259,
        "longitude": 14.432248
    },
    {
        "title": "Cukrář Skála",
        "totalScore": 4.7,
        "reviewsCount": 798,
        "street": "V Celnici 1034/6",
        "city": "Nové Město",
        "state": null,
        "countryCode": "CZ",
        "website": "http://www.cukrarskala.cz/",
        "phone": "+420 220 199 381",
        "categoryName": "Cukrárna",
        "url": "https://www.google.com/maps/place/Cukr%C3%A1%C5%99+Sk%C3%A1la/@50.08784,14.4308377,17z/data=!3m1!4b1!4m6!3m5!1s0x470b94952d448a37:0x7ee594b941c6f7f4!8m2!3d50.08784!4d14.4308377!16s%2Fg%2F11f3bnk7yx?hl=cs&entry=ttu",
        "latitude": 50.08784,
        "longitude": 14.4308377
    },
    {
        "title": "Ovocný Světozor",
        "totalScore": 4.5,
        "reviewsCount": 2324,
        "street": "Vodičkova 39",
        "city": "Nové Město",
        "state": null,
        "countryCode": "CZ",
        "website": "http://www.ovocnysvetozor.cz/",
        "phone": "+420 774 444 874",
        "categoryName": "Prodejna zákusků",
        "url": "https://www.google.com/maps/place/Ovocn%C3%BD+Sv%C4%9Btozor/@50.0818334,14.4249549,17z/data=!3m1!4b1!4m6!3m5!1s0x470b94ed6b2b4901:0x903a72560e94902f!8m2!3d50.0818334!4d14.4249549!16s%2Fg%2F1tg_drxp?hl=cs&entry=ttu",
        "latitude": 50.0818334,
        "longitude": 14.4249549
    },
    {
        "title": "Pekárna a Cukrárna Václav Kotyza",
        "totalScore": 4.7,
        "reviewsCount": 3,
        "street": "Katovická 411",
        "city": "Praha 8-Bohnice",
        "state": null,
        "countryCode": "CZ",
        "website": null,
        "phone": null,
        "categoryName": "Kavárna",
        "url": "https://www.google.com/maps/place/Pek%C3%A1rna+a+Cukr%C3%A1rna+V%C3%A1clav+Kotyza/@50.1314327,14.4240534,17z/data=!3m1!4b1!4m6!3m5!1s0x470bebf9a66653ed:0x209fac960540d64f!8m2!3d50.1314327!4d14.4240534!16s%2Fg%2F11p0vr_chk?hl=cs&entry=ttu",
        "latitude": 50.1314327,
        "longitude": 14.4240534
    },
    {
        "title": "Karlovarské cukrářství",
        "totalScore": 5,
        "reviewsCount": 19,
        "street": "Hlaváčova 12",
        "city": "Praha 8-Kobylisy",
        "state": null,
        "countryCode": "CZ",
        "website": "https://www.karlovarskecukrarstvi.cz/",
        "phone": "+420 723 726 644",
        "categoryName": "Cukrárna",
        "url": "https://www.google.com/maps/place/Karlovarsk%C3%A9+cukr%C3%A1%C5%99stv%C3%AD/@50.1291141,14.4702717,17z/data=!3m1!4b1!4m6!3m5!1s0x470beb67a7876a7d:0x77f306be40317fa1!8m2!3d50.1291141!4d14.4702717!16s%2Fg%2F11gh2vqy75?hl=cs&entry=ttu",
        "latitude": 50.1291141,
        "longitude": 14.4702717
    },
    {
        "title": "Cukrárna Hájek&Hájková",
        "totalScore": 4.4,
        "reviewsCount": 38,
        "street": "Střelničná 1660",
        "city": "Praha 8",
        "state": null,
        "countryCode": "CZ",
        "website": "http://www.cukrarna-hajek-hajkova.cz/",
        "phone": "+420 773 704 324",
        "categoryName": "Cukrárna",
        "url": "https://www.google.com/maps/place/Cukr%C3%A1rna+H%C3%A1jek%26H%C3%A1jkov%C3%A1/@50.1272151,14.4692717,17z/data=!3m1!4b1!4m6!3m5!1s0x470beb9d5bfabbdb:0x37bb7951b91026b7!8m2!3d50.1272151!4d14.4692717!16s%2Fg%2F11t75d1780?hl=cs&entry=ttu",
        "latitude": 50.1272151,
        "longitude": 14.4692717
    },
    {
        "title": "Dorty na svatbu",
        "totalScore": null,
        "reviewsCount": 0,
        "street": "Staroměstské nám. 22",
        "city": "Staré Město",
        "state": null,
        "countryCode": "CZ",
        "website": "http://www.dortynasvatbu.cz/",
        "phone": "+420 221 632 522",
        "categoryName": "Cukrárna",
        "url": "https://www.google.com/maps/place/Dorty+na+svatbu/@50.0868368,14.4211099,17z/data=!3m1!4b1!4m6!3m5!1s0x470b94e94881f603:0xea5031aa94bcfe26!8m2!3d50.0868368!4d14.4211099!16s%2Fg%2F11bbt8qdtz?hl=cs&entry=ttu",
        "latitude": 50.0868368,
        "longitude": 14.4211099
    },
    {
        "title": "Kavárna Šlágr",
        "totalScore": 4.7,
        "reviewsCount": 1151,
        "street": "Francouzská 72",
        "city": "Praha 10-Vinohrady",
        "state": null,
        "countryCode": "CZ",
        "website": "http://www.kavarnaslagr.cz/",
        "phone": "+420 607 277 688",
        "categoryName": "Kavárna / Čajovna",
        "url": "https://www.google.com/maps/place/Kav%C3%A1rna+%C5%A0l%C3%A1gr/@50.072,14.4456798,17z/data=!3m1!4b1!4m6!3m5!1s0x470b948143533f77:0xd1887da5e5ecde5d!8m2!3d50.072!4d14.4456798!16s%2Fg%2F1v6l66gq?hl=cs&entry=ttu",
        "latitude": 50.072,
        "longitude": 14.4456798
    },
    {
        "title": "Trdelník Sweet Dreams",
        "totalScore": 4.2,
        "reviewsCount": 676,
        "street": "Celetná 565",
        "city": "Staré Město",
        "state": null,
        "countryCode": "CZ",
        "website": null,
        "phone": null,
        "categoryName": "Francouzská cukrárna",
        "url": "https://www.google.com/maps/place/Trdeln%C3%ADk+Sweet+Dreams/@50.0871135,14.4247545,17z/data=!3m1!4b1!4m6!3m5!1s0x470b94ebbfeb5b37:0xa41c43bd01842f48!8m2!3d50.0871135!4d14.4247545!16s%2Fg%2F11ddwxs90j?hl=cs&entry=ttu",
        "latitude": 50.0871135,
        "longitude": 14.4247545
    },
    {
        "title": "Libeřské lahůdky",
        "totalScore": 4.4,
        "reviewsCount": 671,
        "street": "Na Žertvách 107/8",
        "city": "Praha 8-Palmovka",
        "state": null,
        "countryCode": "CZ",
        "website": "http://www.liberskelahudky.cz/",
        "phone": "+420 731 151 317",
        "categoryName": "Lahůdky",
        "url": "https://www.google.com/maps/place/Libe%C5%99sk%C3%A9+lah%C5%AFdky/@50.1035081,14.4742995,17z/data=!3m1!4b1!4m6!3m5!1s0x470b93548f42260b:0xf8fc84055550a45f!8m2!3d50.1035081!4d14.4742995!16s%2Fg%2F1tr7bjbw?hl=cs&entry=ttu",
        "latitude": 50.1035081,
        "longitude": 14.4742995
    },
    {
        "title": "Cukrárna Apricot",
        "totalScore": 4.3,
        "reviewsCount": 6,
        "street": "Veltruská 559/31",
        "city": "Praha 9-Prosek",
        "state": null,
        "countryCode": "CZ",
        "website": null,
        "phone": "+420 725 447 199",
        "categoryName": "Prodej zmrzliny",
        "url": "https://www.google.com/maps/place/Cukr%C3%A1rna+Apricot/@50.1211009,14.4939464,17z/data=!3m1!4b1!4m6!3m5!1s0x470bed4ffe04a213:0xb8ad2df9a209a6!8m2!3d50.1211009!4d14.4939464!16s%2Fg%2F11kpmb8sdx?hl=cs&entry=ttu",
        "latitude": 50.1211009,
        "longitude": 14.4939464
    },
    {
        "title": "Karlíkova továrna na dorty",
        "totalScore": 4.5,
        "reviewsCount": 41,
        "street": "Českomoravská 1308",
        "city": "Praha 9-Libeň",
        "state": null,
        "countryCode": "CZ",
        "website": "http://www.karlikovy-dorty.cz/",
        "phone": "+420 728 379 380",
        "categoryName": "Prodejna zákusků",
        "url": "https://www.google.com/maps/place/Karl%C3%ADkova+tov%C3%A1rna+na+dorty/@50.104176,14.4856889,17z/data=!3m1!4b1!4m6!3m5!1s0x470b934d3248aec3:0x1908014366b36f42!8m2!3d50.104176!4d14.4856889!16s%2Fg%2F1tfj1w_d?hl=cs&entry=ttu",
        "latitude": 50.104176,
        "longitude": 14.4856889
    },
    {
        "title": "Le Caveau Cukrárna, kavárna, čajovna",
        "totalScore": 4.5,
        "reviewsCount": 633,
        "street": "nám. J. z Poděbrad 9",
        "city": "Praha 3-Vinohrady",
        "state": null,
        "countryCode": "CZ",
        "website": "http://www.broz-d.cz/",
        "phone": "+420 775 294 864",
        "categoryName": "Kavárna / Čajovna",
        "url": "https://www.google.com/maps/place/Le+Caveau+Cukr%C3%A1rna,+kav%C3%A1rna,+%C4%8Dajovna/@50.0786484,14.449994,17z/data=!3m1!4b1!4m6!3m5!1s0x470b949cea1a85ef:0xd71e0b6894933784!8m2!3d50.0786484!4d14.449994!16s%2Fg%2F1q5bmk6p5?hl=cs&entry=ttu",
        "latitude": 50.0786484,
        "longitude": 14.449994
    },
    {
        "title": "Delice Café",
        "totalScore": 4.7,
        "reviewsCount": 387,
        "street": "Sokolovská 222/39",
        "city": "Karlín",
        "state": null,
        "countryCode": "CZ",
        "website": "http://www.delicecafe.cz/",
        "phone": "+420 222 950 616",
        "categoryName": "Kavárna",
        "url": "https://www.google.com/maps/place/Delice+Caf%C3%A9/@50.092425,14.4434033,17z/data=!3m1!4b1!4m6!3m5!1s0x470b94bc5dc8bb77:0xb118093100d9e84f!8m2!3d50.092425!4d14.4434033!16s%2Fg%2F11c6v92qc3?hl=cs&entry=ttu",
        "latitude": 50.092425,
        "longitude": 14.4434033
    },
    {
        "title": "Cukrářství čp.1",
        "totalScore": 4.9,
        "reviewsCount": 236,
        "street": "Čáslavská 1791/1",
        "city": "Vinohrady",
        "state": null,
        "countryCode": "CZ",
        "website": "https://www.cukrarstvicp1.cz/",
        "phone": "+420 608 218 230",
        "categoryName": "Cukrárna",
        "url": "https://www.google.com/maps/place/Cukr%C3%A1%C5%99stv%C3%AD+%C4%8Dp.1/@50.0756956,14.4602206,17z/data=!3m1!4b1!4m6!3m5!1s0x470b93ccd01e94f1:0xe5ec0d7352dc6717!8m2!3d50.0756956!4d14.4602206!16s%2Fg%2F11fhn3fv6v?hl=cs&entry=ttu",
        "latitude": 50.0756956,
        "longitude": 14.4602206
    },
    {
        "title": "Zavalianis Sweet",
        "totalScore": 4.8,
        "reviewsCount": 74,
        "street": "Puškinovo nám. 691/16",
        "city": "Praha 6-Bubeneč",
        "state": null,
        "countryCode": "CZ",
        "website": "https://zavalianissweet.cz/",
        "phone": "+420 724 304 059",
        "categoryName": "Francouzská cukrárna",
        "url": "https://www.google.com/maps/place/Zavalianis+Sweet/@50.1028059,14.4020109,17z/data=!3m1!4b1!4m6!3m5!1s0x470b9565f9bfc445:0x50c2fa9fa0ac7e1a!8m2!3d50.1028059!4d14.4020109!16s%2Fg%2F11v0gmjdpq?hl=cs&entry=ttu",
        "latitude": 50.1028059,
        "longitude": 14.4020109
    },
    {
        "title": "Kavárna - Cukrárna Elvíra",
        "totalScore": 4.6,
        "reviewsCount": 197,
        "street": "Kozí 858/13",
        "city": "Staré Město",
        "state": null,
        "countryCode": "CZ",
        "website": "http://elviracafe.com/",
        "phone": "+420 721 600 502",
        "categoryName": "Kavárna / Čajovna",
        "url": "https://www.google.com/maps/place/Kav%C3%A1rna+-+Cukr%C3%A1rna+Elv%C3%ADra/@50.0909425,14.4220795,17z/data=!3m1!4b1!4m6!3m5!1s0x470b9509d0f2e021:0xeaa6bfe73ad435e8!8m2!3d50.0909425!4d14.4220795!16s%2Fg%2F11h5qpmm2p?hl=cs&entry=ttu",
        "latitude": 50.0909425,
        "longitude": 14.4220795
    },
    {
        "title": "Lahůdky a kavárna na faře",
        "totalScore": 4.7,
        "reviewsCount": 144,
        "street": "Křižíkova 7/57",
        "city": "Karlín",
        "state": null,
        "countryCode": "CZ",
        "website": "http://www.lahudkynafare.cz/",
        "phone": "+420 725 930 748",
        "categoryName": "Kavárna / Čajovna",
        "url": "https://www.google.com/maps/place/Lah%C5%AFdky+a+kav%C3%A1rna+na+fa%C5%99e/@50.0922534,14.4494862,17z/data=!3m1!4b1!4m6!3m5!1s0x470b94a3429d7a9f:0x3d31b97f1d232cc8!8m2!3d50.0922534!4d14.4494862!16s%2Fg%2F11bxc5t8cq?hl=cs&entry=ttu",
        "latitude": 50.0922534,
        "longitude": 14.4494862
    },
    {
        "title": "Café Millème",
        "totalScore": 4.5,
        "reviewsCount": 258,
        "street": "Klimentská 2067/34",
        "city": "Petrská čtvrť",
        "state": null,
        "countryCode": "CZ",
        "website": "http://www.milleme.cz/",
        "phone": "+420 775 096 621",
        "categoryName": "Cukrárna",
        "url": "https://www.google.com/maps/place/Caf%C3%A9+Mill%C3%A8me/@50.0920398,14.4315258,17z/data=!3m1!4b1!4m6!3m5!1s0x470b94c06f6f17a5:0x51bb285aa8726376!8m2!3d50.0920398!4d14.4315258!16s%2Fg%2F11gfck3h3y?hl=cs&entry=ttu",
        "latitude": 50.0920398,
        "longitude": 14.4315258
    },
    {
        "title": "Ovocný Světozor",
        "totalScore": 4.4,
        "reviewsCount": 1704,
        "street": "Dejvická 9",
        "city": "Praha 6",
        "state": null,
        "countryCode": "CZ",
        "website": "https://www.ovocnysvetozor.cz/",
        "phone": "+420 774 444 845",
        "categoryName": "Cukrárna",
        "url": "https://www.google.com/maps/place/Ovocn%C3%BD+Sv%C4%9Btozor/@50.0981751,14.3998908,17z/data=!3m1!4b1!4m6!3m5!1s0x470b95215dbadca7:0x76cd8f5ef75f1ced!8m2!3d50.0981751!4d14.3998908!16s%2Fg%2F11bc73cqd6?hl=cs&entry=ttu",
        "latitude": 50.0981751,
        "longitude": 14.3998908
    },
    {
        "title": "OLLIES Praha - Holešovice",
        "totalScore": 5,
        "reviewsCount": 7,
        "street": "Tusarova 39a",
        "city": "Praha 7-Holešovice",
        "state": null,
        "countryCode": "CZ",
        "website": "http://www.ollies.cz/",
        "phone": "+420 603 424 268",
        "categoryName": "Cukrárna",
        "url": "https://www.google.com/maps/place/OLLIES+Praha+-+Hole%C5%A1ovice/@50.1020286,14.4510813,17z/data=!3m1!4b1!4m6!3m5!1s0x470b95d9946543eb:0xa7e427e3cc281533!8m2!3d50.1020286!4d14.4510813!16s%2Fg%2F11kj3kskjk?hl=cs&entry=ttu",
        "latitude": 50.1020286,
        "longitude": 14.4510813
    },
    {
        "title": "Ovocný Světozor",
        "totalScore": 4.5,
        "reviewsCount": 1453,
        "street": "22, Sokolovská 32",
        "city": "Karlín",
        "state": null,
        "countryCode": "CZ",
        "website": "http://www.ovocnysvetozor.cz/",
        "phone": "+420 774 444 872",
        "categoryName": "Prodejna zákusků",
        "url": "https://www.google.com/maps/place/Ovocn%C3%BD+Sv%C4%9Btozor/@50.0915278,14.4408669,17z/data=!3m1!4b1!4m6!3m5!1s0x470b94bc32a29d95:0x5b63d6287bf2701!8m2!3d50.0915278!4d14.4408669!16s%2Fg%2F1tglxpxv?hl=cs&entry=ttu",
        "latitude": 50.0915278,
        "longitude": 14.4408669
    },
    {
        "title": "Dortnaobjednavku.cz",
        "totalScore": 4.8,
        "reviewsCount": 21,
        "street": "Křižíkova 7",
        "city": "Praha 8-Karlín",
        "state": null,
        "countryCode": "CZ",
        "website": "http://www.dortnaobjednavku.cz/",
        "phone": "+420 777 322 153",
        "categoryName": "Cukrárna",
        "url": "https://www.google.com/maps/place/Dortnaobjednavku.cz/@50.0922593,14.4494797,17z/data=!3m1!4b1!4m6!3m5!1s0x470b94a4911bf37f:0x52c196b836969300!8m2!3d50.0922593!4d14.4494797!16s%2Fg%2F11gczsz7lk?hl=cs&entry=ttu",
        "latitude": 50.0922593,
        "longitude": 14.4494797
    },
    {
        "title": "Sladké",
        "totalScore": 4.8,
        "reviewsCount": 6,
        "street": "Křižíkova 105",
        "city": "Praha 8-Karlín",
        "state": null,
        "countryCode": "CZ",
        "website": "https://sladke.shop/",
        "phone": "+420 314 004 550",
        "categoryName": "Cukrárna",
        "url": "https://www.google.com/maps/place/Sladk%C3%A9/@50.0935231,14.4550788,17z/data=!3m1!4b1!4m6!3m5!1s0x470b94a41f52bb07:0x644d595eda32daaa!8m2!3d50.0935231!4d14.4550788!16s%2Fg%2F11bbrn0d1k?hl=cs&entry=ttu",
        "latitude": 50.0935231,
        "longitude": 14.4550788
    },
    {
        "title": "Dortíkovo",
        "totalScore": 4.7,
        "reviewsCount": 99,
        "street": "Mečislavova 208",
        "city": "Praha 4-Nusle",
        "state": null,
        "countryCode": "CZ",
        "website": "http://www.dortikovo.cz/",
        "phone": "+420 773 663 991",
        "categoryName": "Cukrárna",
        "url": "https://www.google.com/maps/place/Dort%C3%ADkovo/@50.0633211,14.4443509,17z/data=!3m1!4b1!4m6!3m5!1s0x470b947f3c774929:0x4033d7a0b3351e9f!8m2!3d50.0633211!4d14.4443509!16s%2Fg%2F1tdj_9f_?hl=cs&entry=ttu",
        "latitude": 50.0633211,
        "longitude": 14.4443509
    },
    {
        "title": "Sluneční cukrárna",
        "totalScore": 4.4,
        "reviewsCount": 111,
        "street": "Pelzova",
        "city": "Zbraslav",
        "state": null,
        "countryCode": "CZ",
        "website": null,
        "phone": "+420 725 758 606",
        "categoryName": "Prodej zmrzliny",
        "url": "https://www.google.com/maps/place/Slune%C4%8Dn%C3%AD+cukr%C3%A1rna/@49.9681295,14.3859501,17z/data=!3m1!4b1!4m6!3m5!1s0x470b97484e12e419:0x4609e134beaa5a6d!8m2!3d49.9681295!4d14.3859501!16s%2Fg%2F119vy2pqp?hl=cs&entry=ttu",
        "latitude": 49.9681295,
        "longitude": 14.3859501
    },
    {
        "title": "MEC3",
        "totalScore": 5,
        "reviewsCount": 5,
        "street": "Psohlavců 1731/8a",
        "city": "Praha 4-Braník",
        "state": null,
        "countryCode": "CZ",
        "website": "https://www.mec3.cz/",
        "phone": "+420 241 001 271",
        "categoryName": "Velkoobchod s potravinami",
        "url": "https://www.google.com/maps/place/MEC3/@50.027284,14.4152878,17z/data=!3m1!4b1!4m6!3m5!1s0x470b917347c324a1:0x6f02b746cbf03a2b!8m2!3d50.027284!4d14.4152878!16s%2Fg%2F1tw_lz21?hl=cs&entry=ttu",
        "latitude": 50.027284,
        "longitude": 14.4152878
    },
    {
        "title": "Cukrárna Hanny Zbraslav",
        "totalScore": 3.3,
        "reviewsCount": 181,
        "street": "Zbraslavské nám. 467",
        "city": "Zbraslav",
        "state": null,
        "countryCode": "CZ",
        "website": "http://www.cukrarnahanny.cz/",
        "phone": "+420 257 225 890",
        "categoryName": "Prodejna zákusků",
        "url": "https://www.google.com/maps/place/Cukr%C3%A1rna+Hanny+Zbraslav/@49.9764329,14.394102,17z/data=!3m1!4b1!4m6!3m5!1s0x470b97317c566b69:0xc1018f4f10fbb1d2!8m2!3d49.9764329!4d14.394102!16s%2Fg%2F11cn304w61?hl=cs&entry=ttu",
        "latitude": 49.9764329,
        "longitude": 14.394102
    },
    {
        "title": "Cukrárna U Zámku",
        "totalScore": 4.1,
        "reviewsCount": 24,
        "street": "Zbraslavské nám. 457",
        "city": "Zbraslav",
        "state": null,
        "countryCode": "CZ",
        "website": null,
        "phone": "+420 777 130 366",
        "categoryName": "Cukrárna",
        "url": "https://www.google.com/maps/place/Cukr%C3%A1rna+U+Z%C3%A1mku/@49.9763616,14.3930236,17z/data=!3m1!4b1!4m6!3m5!1s0x470b97316ca750d9:0x2e58b7da7ab01bd5!8m2!3d49.9763616!4d14.3930236!16s%2Fg%2F11c1lf0t26?hl=cs&entry=ttu",
        "latitude": 49.9763616,
        "longitude": 14.3930236
    },
    {
        "title": "Cheecup",
        "totalScore": 4.6,
        "reviewsCount": 306,
        "street": "Nedvědovo nám. 14",
        "city": "Praha 4-Podolí",
        "state": null,
        "countryCode": "CZ",
        "website": "http://www.cheecup.cz/",
        "phone": "+420 731 301 769",
        "categoryName": "Cukrárna",
        "url": "https://www.google.com/maps/place/Cheecup/@50.0567556,14.4209393,17z/data=!3m1!4b1!4m6!3m5!1s0x470b94692efb7361:0x475d9a0355193ad0!8m2!3d50.0567556!4d14.4209393!16s%2Fg%2F119vlyzw0?hl=cs&entry=ttu",
        "latitude": 50.0567556,
        "longitude": 14.4209393
    },
    {
        "title": "Caffé U Makronky",
        "totalScore": 4.5,
        "reviewsCount": 132,
        "street": "K Sídlišti 11",
        "city": "Praha 4",
        "state": null,
        "countryCode": "CZ",
        "website": "http://u-makronky.webnode.cz/",
        "phone": "+420 603 914 459",
        "categoryName": "Kavárna",
        "url": "https://www.google.com/maps/place/Caff%C3%A9+U+Makronky/@50.0461044,14.4299918,17z/data=!3m1!4b1!4m6!3m5!1s0x470b940c85cfe387:0x40864b66f49d3f50!8m2!3d50.0461044!4d14.4299918!16s%2Fg%2F11f0l1dt94?hl=cs&entry=ttu",
        "latitude": 50.0461044,
        "longitude": 14.4299918
    },
    {
        "title": "OVOCNÝ SEMAFOR",
        "totalScore": 2.9,
        "reviewsCount": 18,
        "street": "Budějovická 615/47",
        "city": "Praha 4-Krč",
        "state": null,
        "countryCode": "CZ",
        "website": null,
        "phone": "+420 722 000 014",
        "categoryName": "Cukrárna",
        "url": "https://www.google.com/maps/place/OVOCN%C3%9D+SEMAFOR/@50.0420162,14.4597433,17z/data=!3m1!4b1!4m6!3m5!1s0x470b93c7f792fe25:0x807a041dd0c971f9!8m2!3d50.0420162!4d14.4597433!16s%2Fg%2F11h8wn_z4v?hl=cs&entry=ttu",
        "latitude": 50.0420162,
        "longitude": 14.4597433
    },
    {
        "title": "Ovocný Světozor",
        "totalScore": 4.5,
        "reviewsCount": 1307,
        "street": "Počátecká 412",
        "city": "Praha 4-Michle",
        "state": null,
        "countryCode": "CZ",
        "website": "https://www.ovocnysvetozor.cz/",
        "phone": "+420 774 444 871",
        "categoryName": "Cukrárna",
        "url": "https://www.google.com/maps/place/Ovocn%C3%BD+Sv%C4%9Btozor/@50.044121,14.4560547,17z/data=!3m1!4b1!4m6!3m5!1s0x470b93ecdc63cd69:0x15b4a71f929bed19!8m2!3d50.044121!4d14.4560547!16s%2Fg%2F1tfqdj5p?hl=cs&entry=ttu",
        "latitude": 50.044121,
        "longitude": 14.4560547
    },
    {
        "title": "Edita Paulusová",
        "totalScore": null,
        "reviewsCount": 0,
        "street": "Ke Krči 759/26",
        "city": "Praha 4",
        "state": null,
        "countryCode": "CZ",
        "website": "http://www.editapaulusova.cz/",
        "phone": "+420 606 843 368",
        "categoryName": "Cukrárna",
        "url": "https://www.google.com/maps/place/Edita+Paulusov%C3%A1/@50.0368301,14.4107672,17z/data=!3m1!4b1!4m6!3m5!1s0x470b95daddc95977:0xa2ae2c0c9065e203!8m2!3d50.0368301!4d14.4107672!16s%2Fg%2F11sstl_73d?hl=cs&entry=ttu",
        "latitude": 50.0368301,
        "longitude": 14.4107672
    },
    {
        "title": "Bezva dorty",
        "totalScore": 4.9,
        "reviewsCount": 13,
        "street": "Pertoldova 3344/6",
        "city": "Praha 12",
        "state": null,
        "countryCode": "CZ",
        "website": "http://www.bezvadorty.cz/",
        "phone": "+420 732 186 496",
        "categoryName": "Cukrárna",
        "url": "https://www.google.com/maps/place/Bezva+dorty/@50.0003671,14.426643,17z/data=!3m1!4b1!4m6!3m5!1s0x470b91d62942264b:0x961558e0e9fdd3b6!8m2!3d50.0003671!4d14.426643!16s%2Fg%2F11gnpvw4fy?hl=cs&entry=ttu",
        "latitude": 50.0003671,
        "longitude": 14.426643
    },
    {
        "title": "TOP DORTY - zakázková cukrářská výrobna",
        "totalScore": 5,
        "reviewsCount": 2,
        "street": "Pšenčíkova 674/24",
        "city": "Praha 12-Kamýk",
        "state": null,
        "countryCode": "CZ",
        "website": "https://www.facebook.com/TopDorty/",
        "phone": "+420 777 242 452",
        "categoryName": "Cukrárna",
        "url": "https://www.google.com/maps/place/TOP+DORTY+-+zak%C3%A1zkov%C3%A1+cukr%C3%A1%C5%99sk%C3%A1+v%C3%BDrobna/@50.0154679,14.4455096,17z/data=!3m1!4b1!4m6!3m5!1s0x470b912c52eff973:0x951b98f281b5e15f!8m2!3d50.0154679!4d14.4455096!16s%2Fg%2F11gzqrl92c?hl=cs&entry=ttu",
        "latitude": 50.0154679,
        "longitude": 14.4455096
    },
    {
        "title": "Luxury Cakes",
        "totalScore": 5,
        "reviewsCount": 1,
        "street": "K Sádkám",
        "city": "Zbraslav",
        "state": null,
        "countryCode": "CZ",
        "website": null,
        "phone": "+420 777 812 296",
        "categoryName": "Cukrárna",
        "url": "https://www.google.com/maps/place/Luxury+Cakes/@50.0043447,14.3966308,17z/data=!3m1!4b1!4m6!3m5!1s0x470b96c4394a039f:0x4ae52c9b1d441775!8m2!3d50.0043447!4d14.3966308!16s%2Fg%2F11clsz7mj0?hl=cs&entry=ttu",
        "latitude": 50.0043447,
        "longitude": 14.3966308
    },
    {
        "title": "Anna Magdaléna",
        "totalScore": 4.8,
        "reviewsCount": 9,
        "street": "U Modřanské školy 143 00",
        "city": "Praha 12",
        "state": null,
        "countryCode": "CZ",
        "website": "http://www.annamagdalena.cz/kontakt",
        "phone": "+420 734 473 420",
        "categoryName": "Cukrárna",
        "url": "https://www.google.com/maps/place/Anna+Magdal%C3%A9na/@50.0068607,14.4042662,17z/data=!3m1!4b1!4m6!3m5!1s0x470b9132b6963ba7:0x925a350045658bb0!8m2!3d50.0068607!4d14.4042662!16s%2Fg%2F11gflymhvs?hl=cs&entry=ttu",
        "latitude": 50.0068607,
        "longitude": 14.4042662
    },
    {
        "title": "Cukrárny",
        "totalScore": null,
        "reviewsCount": 0,
        "street": "Pelzova 1513",
        "city": "Zbraslav",
        "state": null,
        "countryCode": "CZ",
        "website": null,
        "phone": null,
        "categoryName": null,
        "url": "https://www.google.com/maps/place/Cukr%C3%A1rny/@49.9681459,14.3860542,17z/data=!3m1!4b1!4m6!3m5!1s0x470b97484d8a974d:0x2b64d4ed434f2172!8m2!3d49.9681459!4d14.3860542!16s%2Fg%2F11fsmt4p27?hl=cs&entry=ttu",
        "latitude": 49.9681459,
        "longitude": 14.3860542
    },
    {
        "title": "Výdejní místo DHL (Cukrárna Poja)",
        "totalScore": 4,
        "reviewsCount": 6,
        "street": "Matějovského 153/11",
        "city": "Praha 16",
        "state": null,
        "countryCode": "CZ",
        "website": "https://locator.dhl.com/results?address=id:PRG03P&language=cs&lc=CZ&resultUom=km&clientAppCode=GYD",
        "phone": "+420 840 103 000",
        "categoryName": "Kurýrní služba",
        "url": "https://www.google.com/maps/place/V%C3%BDdejn%C3%AD+m%C3%ADsto+DHL+(Cukr%C3%A1rna+Poja)/@49.9848168,14.365188,17z/data=!3m1!4b1!4m6!3m5!1s0x470b97688659d629:0xbb84aa39f6a4d97e!8m2!3d49.9848168!4d14.365188!16s%2Fg%2F11gr14gh23?hl=cs&entry=ttu",
        "latitude": 49.9848168,
        "longitude": 14.365188
    },
    {
        "title": "PPL Parcelshop - Cukrárna Poja s.r.o",
        "totalScore": 4.1,
        "reviewsCount": 11,
        "street": "Matějovského 153/11",
        "city": "Praha 16",
        "state": null,
        "countryCode": "CZ",
        "website": null,
        "phone": "+420 225 331 500",
        "categoryName": "Prodejna cukrovinek",
        "url": "https://www.google.com/maps/place/PPL+Parcelshop+-+Cukr%C3%A1rna+Poja+s.r.o/@49.9847911,14.3652999,17z/data=!3m1!4b1!4m6!3m5!1s0x470b974a7398f853:0x6c29b6914655ef07!8m2!3d49.9847911!4d14.3652999!16s%2Fg%2F11h3g9hs_4?hl=cs&entry=ttu",
        "latitude": 49.9847911,
        "longitude": 14.3652999
    },
    {
        "title": "Ovocný Světozor",
        "totalScore": 4.4,
        "reviewsCount": 550,
        "street": "Roztylská 2321/19",
        "city": "Praha 4-Chodov",
        "state": null,
        "countryCode": "CZ",
        "website": "http://www.ovocnysvetozor.cz/",
        "phone": "+420 774 444 876",
        "categoryName": "Prodejna zákusků",
        "url": "https://www.google.com/maps/place/Ovocn%C3%BD+Sv%C4%9Btozor/@50.0306545,14.4912604,17z/data=!3m1!4b1!4m6!3m5!1s0x470b9232c2d3f475:0x9f0ae6a00d80b010!8m2!3d50.0306545!4d14.4912604!16s%2Fg%2F1v46z1q5?hl=cs&entry=ttu",
        "latitude": 50.0306545,
        "longitude": 14.4912604
    },
    {
        "title": "Pekárna u Rudolfa",
        "totalScore": 4,
        "reviewsCount": 42,
        "street": "Mukařovského 2590",
        "city": "Praha 13-Stodůlky",
        "state": null,
        "countryCode": "CZ",
        "website": null,
        "phone": "+420 724 831 924",
        "categoryName": "Pekařství",
        "url": "https://www.google.com/maps/place/Pek%C3%A1rna+u+Rudolfa/@50.0454219,14.3229013,17z/data=!3m1!4b1!4m6!3m5!1s0x470b95ff3a1125e9:0x49585421138f5f55!8m2!3d50.0454219!4d14.3229013!16s%2Fg%2F11f3n90cyr?hl=cs&entry=ttu",
        "latitude": 50.0454219,
        "longitude": 14.3229013
    },
    {
        "title": "LaraFi výroba dortů",
        "totalScore": 3.4,
        "reviewsCount": 5,
        "street": "Štěpařská 892/13",
        "city": "Praha 5-Hlubočepy",
        "state": null,
        "countryCode": "CZ",
        "website": "http://www.hanasouckova.cz/",
        "phone": "+420 773 222 061",
        "categoryName": "Cukrárna",
        "url": "https://www.google.com/maps/place/LaraFi+v%C3%BDroba+dort%C5%AF/@50.0299731,14.3748988,17z/data=!3m1!4b1!4m6!3m5!1s0x470b968127053599:0x16a58c4e8fa8e4ef!8m2!3d50.0299731!4d14.3748988!16s%2Fg%2F11h9wg8nvy?hl=cs&entry=ttu",
        "latitude": 50.0299731,
        "longitude": 14.3748988
    },
    {
        "title": "Pod okny",
        "totalScore": 4.2,
        "reviewsCount": 41,
        "street": "Praha 11 CZ, Jarníkova 1894/21",
        "city": "Praha 4-Chodov",
        "state": null,
        "countryCode": "CZ",
        "website": null,
        "phone": "+420 721 818 182",
        "categoryName": "Kavárna / Čajovna",
        "url": "https://www.google.com/maps/place/Pod+okny/@50.0257371,14.490741,17z/data=!3m1!4b1!4m6!3m5!1s0x470b922c6feaa7b3:0xaef3063a5c8b8576!8m2!3d50.0257371!4d14.490741!16s%2Fg%2F11c0qnt6lk?hl=cs&entry=ttu",
        "latitude": 50.0257371,
        "longitude": 14.490741
    },
    {
        "title": "Cukrářská Výroba",
        "totalScore": 5,
        "reviewsCount": 1,
        "street": "Tererova 1355/4",
        "city": "Praha 11-Chodov",
        "state": null,
        "countryCode": "CZ",
        "website": null,
        "phone": null,
        "categoryName": "Prodejna",
        "url": "https://www.google.com/maps/place/Cukr%C3%A1%C5%99sk%C3%A1+V%C3%BDroba/@50.0242457,14.5212918,17z/data=!3m1!4b1!4m6!3m5!1s0x470b921985bdae65:0x36bd4a2b06c3b094!8m2!3d50.0242457!4d14.5212918!16s%2Fg%2F11j2ynpnml?hl=cs&entry=ttu",
        "latitude": 50.0242457,
        "longitude": 14.5212918
    },
    {
        "title": "Cafe Max Relax",
        "totalScore": 4.8,
        "reviewsCount": 16,
        "street": "Donovalská 31",
        "city": "Praha 11-Chodov",
        "state": null,
        "countryCode": "CZ",
        "website": "https://www.facebook.com/pg/cafemaxrelax/about/?ref=page_internal",
        "phone": "+420 774 641 916",
        "categoryName": "Kavárna / Čajovna",
        "url": "https://www.google.com/maps/place/Cafe+Max+Relax/@50.0365794,14.5058121,17z/data=!3m1!4b1!4m6!3m5!1s0x470b9237844b06d3:0x52249105ce31a603!8m2!3d50.0365794!4d14.5058121!16s%2Fg%2F11gdknqdvn?hl=cs&entry=ttu",
        "latitude": 50.0365794,
        "longitude": 14.5058121
    },
    {
        "title": "La Zmrzka Café - Barrandov",
        "totalScore": 4.6,
        "reviewsCount": 57,
        "street": "Náměstí Olgy Scheinpflugové 1284/2",
        "city": "Praha 5-Barrandov",
        "state": null,
        "countryCode": "CZ",
        "website": "http://www.lazmrzka.cz/",
        "phone": "+420 725 726 727",
        "categoryName": "Prodej zmrzliny",
        "url": "https://www.google.com/maps/place/La+Zmrzka+Caf%C3%A9+-+Barrandov/@50.0301401,14.3621704,17z/data=!3m1!4b1!4m6!3m5!1s0x470b97b62c6bdc47:0xd844f58049db7310!8m2!3d50.0301401!4d14.3621704!16s%2Fg%2F11rfwkfm7m?hl=cs&entry=ttu",
        "latitude": 50.0301401,
        "longitude": 14.3621704
    },
    {
        "title": "Jedlý papír na dort",
        "totalScore": null,
        "reviewsCount": 0,
        "street": "Brigádnická",
        "city": "Ďáblice",
        "state": null,
        "countryCode": "CZ",
        "website": null,
        "phone": "+420 602 305 898",
        "categoryName": "Cukrárna",
        "url": "https://www.google.com/maps/place/Jedl%C3%BD+pap%C3%ADr+na+dort/@50.1446575,14.4775268,17z/data=!3m1!4b1!4m6!3m5!1s0x470beb79acccdbb3:0x7eecaae0cac4791!8m2!3d50.1446575!4d14.4775268!16s%2Fg%2F11fmx0_2z3?hl=cs&entry=ttu",
        "latitude": 50.1446575,
        "longitude": 14.4775268
    },
    {
        "title": "Monika Bohosova - potahovací hmota Formix",
        "totalScore": null,
        "reviewsCount": 0,
        "street": "Prosecká 682",
        "city": "Praha 9-Prosek",
        "state": null,
        "countryCode": "CZ",
        "website": "http://www.potahovaci-hmota-formix.eu/",
        "phone": "+420 608 380 039",
        "categoryName": "Cukrárna",
        "url": "https://www.google.com/maps/place/Monika+Bohosova+-+potahovac%C3%AD+hmota+Formix/@50.1207571,14.5024757,17z/data=!3m1!4b1!4m6!3m5!1s0x470becbe541b74b3:0x4ab70266d3ac250b!8m2!3d50.1207571!4d14.5024757!16s%2Fg%2F12lsx7d0y?hl=cs&entry=ttu",
        "latitude": 50.1207571,
        "longitude": 14.5024757
    },
    {
        "title": "Piaf House",
        "totalScore": 4.5,
        "reviewsCount": 55,
        "street": "Hřenská 1",
        "city": "Ďáblice",
        "state": null,
        "countryCode": "CZ",
        "website": "http://www.dortypiaf.cz/",
        "phone": "+420 774 220 921",
        "categoryName": "Cukrárna",
        "url": "https://www.google.com/maps/place/Piaf+House/@50.1439209,14.4734585,17z/data=!3m1!4b1!4m6!3m5!1s0x470beb7769cbbb83:0xf0482f2ad0ff3b16!8m2!3d50.1439209!4d14.4734585!16s%2Fg%2F11dzss4017?hl=cs&entry=ttu",
        "latitude": 50.1439209,
        "longitude": 14.4734585
    },
    {
        "title": "Sladká dílna - Čakovice",
        "totalScore": 4.8,
        "reviewsCount": 603,
        "street": "Cukrovarská 15/20",
        "city": "Praha-Čakovice",
        "state": null,
        "countryCode": "CZ",
        "website": "http://www.sladkadilna.cz/",
        "phone": "+420 775 033 520",
        "categoryName": "Cukrárna",
        "url": "https://www.google.com/maps/place/Sladk%C3%A1+d%C3%ADlna+-+%C4%8Cakovice/@50.1515518,14.5228229,17z/data=!3m1!4b1!4m6!3m5!1s0x470bec5d086ca579:0xb593dd48d02d8585!8m2!3d50.1515518!4d14.5228229!16s%2Fg%2F11gff2t3_7?hl=cs&entry=ttu",
        "latitude": 50.1515518,
        "longitude": 14.5228229
    },
    {
        "title": "Cukrárna DORTINI - WWW.DORTINI.CZ",
        "totalScore": 4.8,
        "reviewsCount": 175,
        "street": "Freyova 82/27",
        "city": "Praha 9-Vysočany",
        "state": null,
        "countryCode": "CZ",
        "website": "http://www.dortini.cz/",
        "phone": "+420 775 114 242",
        "categoryName": "Zákusková restaurace",
        "url": "https://www.google.com/maps/place/Cukr%C3%A1rna+DORTINI+-+WWW.DORTINI.CZ/@50.1084438,14.5011572,17z/data=!3m1!4b1!4m6!3m5!1s0x470b95842e9903e3:0x64a7e8322bc8ccee!8m2!3d50.1084438!4d14.5011572!16s%2Fg%2F11gzmbk1md?hl=cs&entry=ttu",
        "latitude": 50.1084438,
        "longitude": 14.5011572
    },
    {
        "title": "Cukrářství Tichý",
        "totalScore": 4,
        "reviewsCount": 1,
        "street": "Klapkova 156",
        "city": "Praha 8-Kobylisy",
        "state": null,
        "countryCode": "CZ",
        "website": null,
        "phone": "+420 284 686 282",
        "categoryName": "Pekařství",
        "url": "https://www.google.com/maps/place/Cukr%C3%A1%C5%99stv%C3%AD+Tich%C3%BD/@50.1244988,14.4559056,17z/data=!3m1!4b1!4m6!3m5!1s0x470beb41499237fb:0xfc9ff34d290e4820!8m2!3d50.1244988!4d14.4559056!16s%2Fg%2F11bc7r0n_8?hl=cs&entry=ttu",
        "latitude": 50.1244988,
        "longitude": 14.4559056
    },
    {
        "title": "Terky Kejky",
        "totalScore": 5,
        "reviewsCount": 14,
        "street": "Dolnocholupická 18",
        "city": "Praha 12",
        "state": null,
        "countryCode": "CZ",
        "website": "https://www.facebook.com/terkykejky/",
        "phone": "+420 605 543 366",
        "categoryName": "Cukrárna",
        "url": "https://www.google.com/maps/place/Terky+Kejky/@49.999076,14.4139455,17z/data=!3m1!4b1!4m6!3m5!1s0x470b91c5039ccf85:0x88663838a38ae0f1!8m2!3d49.999076!4d14.4139455!16s%2Fg%2F11lkfw1kc9?hl=cs&entry=ttu",
        "latitude": 49.999076,
        "longitude": 14.4139455
    },
    {
        "title": "Dorty Havelková",
        "totalScore": 4.7,
        "reviewsCount": 13,
        "street": "Děčínská 464",
        "city": "Praha 9-Střížkov",
        "state": null,
        "countryCode": "CZ",
        "website": "http://www.dortyhavelkova.cz/",
        "phone": "+420 720 161 168",
        "categoryName": "Cukrárna",
        "url": "https://www.google.com/maps/place/Dorty+Havelkov%C3%A1/@50.125649,14.482572,17z/data=!3m1!4b1!4m6!3m5!1s0x470ecabec05218cb:0x6bd8937e2afc7252!8m2!3d50.125649!4d14.482572!16s%2Fg%2F12hk2h1zv?hl=cs&entry=ttu",
        "latitude": 50.125649,
        "longitude": 14.482572
    },
    {
        "title": "SiCAKE - Svět Dortů OC Letňany",
        "totalScore": null,
        "reviewsCount": 0,
        "street": "Veselská 663",
        "city": "Praha 18",
        "state": null,
        "countryCode": "CZ",
        "website": "https://www.sicake.cz/",
        "phone": "+420 724 363 933",
        "categoryName": "Cukrárna",
        "url": "https://www.google.com/maps/place/SiCAKE+-+Sv%C4%9Bt+Dort%C5%AF+OC+Let%C5%88any/@50.1377563,14.4983049,17z/data=!3m1!4b1!4m6!3m5!1s0x470bedbb9b79fa55:0xac43cbfa23394286!8m2!3d50.1377563!4d14.4983049!16s%2Fg%2F11v9vp4x6n?hl=cs&entry=ttu",
        "latitude": 50.1377563,
        "longitude": 14.4983049
    },
    {
        "title": "Upečeme.cz",
        "totalScore": 4.5,
        "reviewsCount": 37,
        "street": "Rýmařovská 561",
        "city": "Letňany",
        "state": null,
        "countryCode": "CZ",
        "website": "https://www.upeceme.cz/",
        "phone": "+420 778 461 955",
        "categoryName": "Cukrárna",
        "url": "https://www.google.com/maps/place/Upe%C4%8Deme.cz/@50.135848,14.5104085,17z/data=!3m1!4b1!4m6!3m5!1s0x470bede960bef51b:0x1c1b2d609150513c!8m2!3d50.135848!4d14.5104085!16s%2Fg%2F11nfpnn6ks?hl=cs&entry=ttu",
        "latitude": 50.135848,
        "longitude": 14.5104085
    },
    {
        "title": "Cukrářství v zahradě",
        "totalScore": 4.9,
        "reviewsCount": 93,
        "street": "Ve žlíbku 72",
        "city": "Praha 20",
        "state": null,
        "countryCode": "CZ",
        "website": "http://www.cukrarstvivzahrade.cz/",
        "phone": "+420 721 100 146",
        "categoryName": "Cukrárna",
        "url": "https://www.google.com/maps/place/Cukr%C3%A1%C5%99stv%C3%AD+v+zahrad%C4%9B/@50.1124435,14.6253297,17z/data=!3m1!4b1!4m6!3m5!1s0x470bf3687da16037:0x72a11ec564b5a1b!8m2!3d50.1124435!4d14.6253297!16s%2Fg%2F11gxn81_dp?hl=cs&entry=ttu",
        "latitude": 50.1124435,
        "longitude": 14.6253297
    },
    {
        "title": "Junior Cafe",
        "totalScore": 3.6,
        "reviewsCount": 97,
        "street": "Slavětínská 11",
        "city": "Praha-Klánovice",
        "state": null,
        "countryCode": "CZ",
        "website": null,
        "phone": null,
        "categoryName": "Cukrárna",
        "url": "https://www.google.com/maps/place/Junior+Cafe/@50.0970206,14.6699746,17z/data=!3m1!4b1!4m6!3m5!1s0x470bf338a255f8fd:0x1115c07d44c328!8m2!3d50.0970206!4d14.6699746!16s%2Fg%2F113k31lln?hl=cs&entry=ttu",
        "latitude": 50.0970206,
        "longitude": 14.6699746
    },
    {
        "title": "Dortini Cakes & Coffee",
        "totalScore": 5,
        "reviewsCount": 1,
        "street": "Chlumecká 765/6",
        "city": "Praha 9-Černý Most",
        "state": null,
        "countryCode": "CZ",
        "website": "https://www.dortini.cz/",
        "phone": "+420 775 114 242",
        "categoryName": "Cukrárna",
        "url": "https://www.google.com/maps/place/Dortini+Cakes+%26+Coffee/@50.108647,14.5850325,17z/data=!3m1!4b1!4m6!3m5!1s0x470bed42db392fe9:0xe011c5909f532f8d!8m2!3d50.108647!4d14.5850325!16s%2Fg%2F11kqr7ck5s?hl=cs&entry=ttu",
        "latitude": 50.108647,
        "longitude": 14.5850325
    },
    {
        "title": "Wink Cake",
        "totalScore": 4.7,
        "reviewsCount": 46,
        "street": "Náchodská 789/27",
        "city": "Praha 20",
        "state": null,
        "countryCode": "CZ",
        "website": "http://www.winkcake.cz/",
        "phone": "+420 777 872 891",
        "categoryName": "Cukrárna",
        "url": "https://www.google.com/maps/place/Wink+Cake/@50.1127035,14.5949969,17z/data=!3m1!4b1!4m6!3m5!1s0x470bf29f0d3e8e65:0xfc8a1e1a9f34a250!8m2!3d50.1127035!4d14.5949969!16s%2Fg%2F1jkxtns8x?hl=cs&entry=ttu",
        "latitude": 50.1127035,
        "longitude": 14.5949969
    },
    {
        "title": "Dorty Daneta",
        "totalScore": 5,
        "reviewsCount": 5,
        "street": "Jordánská 701",
        "city": "Praha 14-Kyje",
        "state": null,
        "countryCode": "CZ",
        "website": "http://dortydaneta.cz/kontakt/",
        "phone": "+420 604 217 108",
        "categoryName": "Cukrárna",
        "url": "https://www.google.com/maps/place/Dorty+Daneta/@50.108676,14.5593843,17z/data=!3m1!4b1!4m6!3m5!1s0x470bed47637dbfe9:0x95797d7e029e412a!8m2!3d50.108676!4d14.5593843!16s%2Fg%2F11fmx0qcc8?hl=cs&entry=ttu",
        "latitude": 50.108676,
        "longitude": 14.5593843
    },
    {
        "title": "Ovocný Světozor",
        "totalScore": 4.5,
        "reviewsCount": 665,
        "street": "Chlumecká 6",
        "city": "Praha 9-Černý Most",
        "state": null,
        "countryCode": "CZ",
        "website": "http://www.ovocnysvetozor.cz/",
        "phone": "+420 774 444 869",
        "categoryName": "Cukrárna",
        "url": "https://www.google.com/maps/place/Ovocn%C3%BD+Sv%C4%9Btozor/@50.108458,14.5858114,17z/data=!3m1!4b1!4m6!3m5!1s0x470bed5f14c99e2f:0x87cb105211c72ab3!8m2!3d50.108458!4d14.5858114!16s%2Fg%2F1pxwkjg83?hl=cs&entry=ttu",
        "latitude": 50.108458,
        "longitude": 14.5858114
    },
    {
        "title": "Tichá kavárna",
        "totalScore": 4.6,
        "reviewsCount": 517,
        "street": "Burešova 1151/12",
        "city": "Praha 8",
        "state": null,
        "countryCode": "CZ",
        "website": "http://www.tichakavarna.cz/",
        "phone": "+420 739 245 270",
        "categoryName": "Kavárna / Čajovna",
        "url": "https://www.google.com/maps/place/Tich%C3%A1+kav%C3%A1rna/@50.1298495,14.4686951,17z/data=!3m1!4b1!4m6!3m5!1s0x470beb67ca6cf437:0x868f807a8a186319!8m2!3d50.1298495!4d14.4686951!16s%2Fg%2F11b7yvb54m?hl=cs&entry=ttu",
        "latitude": 50.1298495,
        "longitude": 14.4686951
    },
    {
        "title": "Cukřenka",
        "totalScore": 5,
        "reviewsCount": 5,
        "street": "Brandejsovo nám. 1251/3",
        "city": "Praha-Suchdol",
        "state": null,
        "countryCode": "CZ",
        "website": "https://www.facebook.com/CukrenkaPraha",
        "phone": null,
        "categoryName": "Cukrárna",
        "url": "https://www.google.com/maps/place/Cuk%C5%99enka/@50.1333008,14.377853,17z/data=!3m1!4b1!4m6!3m5!1s0x470beaa484786e4b:0xdc79650cabbf5706!8m2!3d50.1333008!4d14.377853!16s%2Fg%2F11hzvdjssc?hl=cs&entry=ttu",
        "latitude": 50.1333008,
        "longitude": 14.377853
    },
    {
        "title": "Nasladko.cz",
        "totalScore": 4.7,
        "reviewsCount": 218,
        "street": "6, Brandejsovo nám. 1234",
        "city": "Praha-Suchdol",
        "state": null,
        "countryCode": "CZ",
        "website": "https://www.nasladko.cz/",
        "phone": "+420 777 031 214",
        "categoryName": "Cukrárna",
        "url": "https://www.google.com/maps/place/Nasladko.cz/@50.1337118,14.3769166,17z/data=!3m1!4b1!4m6!3m5!1s0x470beaa478afe85f:0x6172290067d3bfd6!8m2!3d50.1337118!4d14.3769166!16s%2Fg%2F11b8_sk2_m?hl=cs&entry=ttu",
        "latitude": 50.1337118,
        "longitude": 14.3769166
    },
    {
        "title": "Viňas",
        "totalScore": 4.6,
        "reviewsCount": 42,
        "street": "Počernická 81",
        "city": "Praha 10",
        "state": null,
        "countryCode": "CZ",
        "website": "https://vina.eatbu.com/",
        "phone": "+420 777 154 940",
        "categoryName": "Kavárna / Čajovna",
        "url": "https://www.google.com/maps/place/Vi%C5%88as/@50.0832353,14.5064285,17z/data=!3m1!4b1!4m6!3m5!1s0x470b93586ca23d73:0xda6a324b3d64fd31!8m2!3d50.0832353!4d14.5064285!16s%2Fg%2F11f08rthjp?hl=cs&entry=ttu",
        "latitude": 50.0832353,
        "longitude": 14.5064285
    },
    {
        "title": "Bertíkova cukrárna",
        "totalScore": 3,
        "reviewsCount": 2,
        "street": "Českobrodská 1174",
        "city": "Praha 9-Kyje",
        "state": null,
        "countryCode": "CZ",
        "website": "https://www.e-cukrarna.cz/kontakty/",
        "phone": null,
        "categoryName": "Restaurace / Kavárna",
        "url": "https://www.google.com/maps/place/Bert%C3%ADkova+cukr%C3%A1rna/@50.0898146,14.5512341,17z/data=!3m1!4b1!4m6!3m5!1s0x470b92b66c52d077:0x58d346af1f259984!8m2!3d50.0898146!4d14.5512341!16s%2Fg%2F11frt44nrt?hl=cs&entry=ttu",
        "latitude": 50.0898146,
        "longitude": 14.5512341
    },
    {
        "title": "Trdlokafe",
        "totalScore": 3.9,
        "reviewsCount": 11,
        "street": "Park Hostivař, Švehlova 32",
        "city": "Praha 15",
        "state": null,
        "countryCode": "CZ",
        "website": null,
        "phone": null,
        "categoryName": "Cukrárna",
        "url": "https://www.google.com/maps/place/Trdlokafe/@50.0537105,14.5182539,17z/data=!3m1!4b1!4m6!3m5!1s0x470b9393813dc47b:0x6a4ab38ff47ca3db!8m2!3d50.0537105!4d14.5182539!16s%2Fg%2F11ptrrd78d?hl=cs&entry=ttu",
        "latitude": 50.0537105,
        "longitude": 14.5182539
    },
    {
        "title": "Park Café 67",
        "totalScore": 4.1,
        "reviewsCount": 265,
        "street": "Tilleho nám. 792",
        "city": "Praha 5-Hlubočepy",
        "state": null,
        "countryCode": "CZ",
        "website": null,
        "phone": "+420 777 747 400",
        "categoryName": "Kavárna / Čajovna",
        "url": "https://www.google.com/maps/place/Park+Caf%C3%A9+67/@50.0344388,14.3769676,17z/data=!3m1!4b1!4m6!3m5!1s0x470b942a874df897:0x7e691f87b71f4bea!8m2!3d50.0344388!4d14.3769676!16s%2Fg%2F11cltchct_?hl=cs&entry=ttu",
        "latitude": 50.0344388,
        "longitude": 14.3769676
    },
    {
        "title": "Homecakes",
        "totalScore": 4,
        "reviewsCount": 8,
        "street": "Renoirova 645",
        "city": "Praha 5",
        "state": null,
        "countryCode": "CZ",
        "website": "http://www.homecakes.cz/",
        "phone": "+420 604 990 476",
        "categoryName": "Cukrárna",
        "url": "https://www.google.com/maps/place/Homecakes/@50.0367461,14.3800109,17z/data=!3m1!4b1!4m6!3m5!1s0x470b942bb64b9d8b:0x3f9bb2346caca241!8m2!3d50.0367461!4d14.3800109!16s%2Fg%2F113gz2p5c?hl=cs&entry=ttu",
        "latitude": 50.0367461,
        "longitude": 14.3800109
    },
    {
        "title": "Pekárna a cukrárna (výrobna) Wine Food",
        "totalScore": 4.2,
        "reviewsCount": 10,
        "street": "U Královské louky 892",
        "city": "Praha 5-Smíchov",
        "state": null,
        "countryCode": "CZ",
        "website": null,
        "phone": "+420 775 121 881",
        "categoryName": "Ústředí společnosti",
        "url": "https://www.google.com/maps/place/Pek%C3%A1rna+a+cukr%C3%A1rna+(v%C3%BDrobna)+Wine+Food/@50.0630145,14.4102263,17z/data=!3m1!4b1!4m6!3m5!1s0x470b945b6354f9bf:0x3a2fd60224dc37a5!8m2!3d50.0630145!4d14.4102263!16s%2Fg%2F11dfjyl70y?hl=cs&entry=ttu",
        "latitude": 50.0630145,
        "longitude": 14.4102263
    },
    {
        "title": "Si cake",
        "totalScore": 4.3,
        "reviewsCount": 4,
        "street": "OC Nový, Plzeňská 8",
        "city": "Praha 5-Smíchov",
        "state": null,
        "countryCode": "CZ",
        "website": "http://www.sicake.cz/",
        "phone": "+420 777 266 933",
        "categoryName": "Cukrárna",
        "url": "https://www.google.com/maps/place/Si+cake/@50.0725094,14.4026182,17z/data=!3m1!4b1!4m6!3m5!1s0x470b95a90fa4435d:0xf4e02b8b44ccdb47!8m2!3d50.0725094!4d14.4026182!16s%2Fg%2F11hn7nschf?hl=cs&entry=ttu",
        "latitude": 50.0725094,
        "longitude": 14.4026182
    },
    {
        "title": "Dolce Carosello",
        "totalScore": 4.4,
        "reviewsCount": 600,
        "street": "Turnovského 497/2",
        "city": "Strašnice",
        "state": null,
        "countryCode": "CZ",
        "website": "http://www.dolce-carosello.cz/",
        "phone": "+420 274 774 251",
        "categoryName": "Cukrárna",
        "url": "https://www.google.com/maps/place/Dolce+Carosello/@50.0757506,14.5003605,17z/data=!3m1!4b1!4m6!3m5!1s0x470b931a2f0d3189:0x9c54ec8a2faf17ac!8m2!3d50.0757506!4d14.5003605!16s%2Fg%2F1q5bqw3rt?hl=cs&entry=ttu",
        "latitude": 50.0757506,
        "longitude": 14.5003605
    },
    {
        "title": "DobrýCukrář.cz",
        "totalScore": null,
        "reviewsCount": 0,
        "street": "U Císařské cesty 178",
        "city": "Praha-Benice",
        "state": null,
        "countryCode": "CZ",
        "website": "http://www.dobry-cukrar.cz/",
        "phone": "+420 777 849 161",
        "categoryName": "Pečení svatebního cukroví",
        "url": "https://www.google.com/maps/place/Dobr%C3%BDCukr%C3%A1%C5%99.cz/@50.014671,14.6053363,17z/data=!3m1!4b1!4m6!3m5!1s0x470b8dc771044443:0xcbd448bc05872cbb!8m2!3d50.014671!4d14.6053363!16s%2Fg%2F11jfcc6519?hl=cs&entry=ttu",
        "latitude": 50.014671,
        "longitude": 14.6053363
    },
    {
        "title": "Smetanová cukrárna Výrobna lahůdek",
        "totalScore": 3,
        "reviewsCount": 31,
        "street": "Metodějova 1464/11",
        "city": "Praha 11-Chodov",
        "state": null,
        "countryCode": "CZ",
        "website": "http://www.smetanova-cukrarna.cz/",
        "phone": "+420 242 487 432",
        "categoryName": "Výroba a dodávky potravin",
        "url": "https://www.google.com/maps/place/Smetanov%C3%A1+cukr%C3%A1rna+V%C3%BDrobna+lah%C5%AFdek/@50.0280598,14.5203903,17z/data=!3m1!4b1!4m6!3m5!1s0x470b9217099440e7:0xcc9c9b0688cbb7b3!8m2!3d50.0280598!4d14.5203903!16s%2Fg%2F11f2wlrcx2?hl=cs&entry=ttu",
        "latitude": 50.0280598,
        "longitude": 14.5203903
    },
    {
        "title": "Pekařství Cukrářství",
        "totalScore": 3.3,
        "reviewsCount": 4,
        "street": "Na Okraji 439/46",
        "city": "Praha 6-Veleslavín",
        "state": null,
        "countryCode": "CZ",
        "website": null,
        "phone": null,
        "categoryName": "Pekařství",
        "url": "https://www.google.com/maps/place/Peka%C5%99stv%C3%AD+Cukr%C3%A1%C5%99stv%C3%AD/@50.0898562,14.3436105,17z/data=!3m1!4b1!4m6!3m5!1s0x470bbfd7e3db426d:0x5c34ab2c332e8dc!8m2!3d50.0898562!4d14.3436105!16s%2Fg%2F11j8llcblb?hl=cs&entry=ttu",
        "latitude": 50.0898562,
        "longitude": 14.3436105
    },
    {
        "title": "Sweet & Fresh",
        "totalScore": 3.7,
        "reviewsCount": 3,
        "street": "Obora Hvězda",
        "city": "Praha 6",
        "state": null,
        "countryCode": "CZ",
        "website": null,
        "phone": "+420 777 215 344",
        "categoryName": "Cukrárna",
        "url": "https://www.google.com/maps/place/Sweet+%26+Fresh/@50.0774883,14.339594,17z/data=!3m1!4b1!4m6!3m5!1s0x470b9580f1dda083:0x97b581688022f81d!8m2!3d50.0774883!4d14.339594!16s%2Fg%2F11gcx_7gr9?hl=cs&entry=ttu",
        "latitude": 50.0774883,
        "longitude": 14.339594
    },
    {
        "title": "Ovocný světozor",
        "totalScore": 4.6,
        "reviewsCount": 145,
        "street": "Nuselská 133/134",
        "city": "Praha 4-Michle",
        "state": null,
        "countryCode": "CZ",
        "website": "https://www.ovocnysvetozor.cz/pobocky/nuselska",
        "phone": "+420 774 444 846",
        "categoryName": "Cukrárna",
        "url": "https://www.google.com/maps/place/Ovocn%C3%BD+sv%C4%9Btozor/@50.0547252,14.4523426,17z/data=!3m1!4b1!4m6!3m5!1s0x470b938f12db7c7b:0x32b33d137733056e!8m2!3d50.0547252!4d14.4523426!16s%2Fg%2F11f4qxyn_g?hl=cs&entry=ttu",
        "latitude": 50.0547252,
        "longitude": 14.4523426
    },
    {
        "title": "Makronky z Vinohrad",
        "totalScore": null,
        "reviewsCount": 0,
        "street": "Šrobárova 2077",
        "city": "Vinohrady",
        "state": null,
        "countryCode": "CZ",
        "website": "https://www.makronkyzvinohrad.cz/",
        "phone": "+420 777 610 744",
        "categoryName": "Cukrárna",
        "url": "https://www.google.com/maps/place/Makronky+z+Vinohrad/@50.0763306,14.4718947,17z/data=!3m1!4b1!4m6!3m5!1s0x470b9343d4caa9eb:0xf2c0ee530e426068!8m2!3d50.0763306!4d14.4718947!16s%2Fg%2F11sf8t0jh3?hl=cs&entry=ttu",
        "latitude": 50.0763306,
        "longitude": 14.4718947
    },
    {
        "title": "DESERTERIE",
        "totalScore": null,
        "reviewsCount": 0,
        "street": "Táboritská",
        "city": "Praha 3-Žižkov",
        "state": null,
        "countryCode": "CZ",
        "website": null,
        "phone": null,
        "categoryName": "Cukrárna",
        "url": "https://www.google.com/maps/place/DESERTERIE/@50.0825816,14.4562772,17z/data=!3m1!4b1!4m6!3m5!1s0x470b95dd9a63ca07:0x71744f3a657e1e7a!8m2!3d50.0825816!4d14.4562772!16s%2Fg%2F11k46pyycf?hl=cs&entry=ttu",
        "latitude": 50.0825816,
        "longitude": 14.4562772
    },
    {
        "title": "Moravské koláčky Doležal",
        "totalScore": 4.9,
        "reviewsCount": 75,
        "street": "Žitomírská 650",
        "city": "Praha 10-Vršovice",
        "state": null,
        "countryCode": "CZ",
        "website": "http://www.moravskacukrarna.cz/",
        "phone": "+420 607 084 545",
        "categoryName": "Cukrárna",
        "url": "https://www.google.com/maps/place/Moravsk%C3%A9+kol%C3%A1%C4%8Dky+Dole%C5%BEal/@50.0705964,14.4577227,17z/data=!3m1!4b1!4m6!3m5!1s0x470b937eae845e21:0xe3748fbd0e29ba77!8m2!3d50.0705964!4d14.4577227!16s%2Fg%2F11c70bkrnp?hl=cs&entry=ttu",
        "latitude": 50.0705964,
        "longitude": 14.4577227
    },
    {
        "title": "Sugar MaMa",
        "totalScore": 5,
        "reviewsCount": 28,
        "street": "Milešovská 1609/8",
        "city": "Praha 2-Vinohrady",
        "state": null,
        "countryCode": "CZ",
        "website": "http://www.sugarmama.cz/",
        "phone": "+420 773 504 183",
        "categoryName": "Cukrárna",
        "url": "https://www.google.com/maps/place/Sugar+MaMa/@50.0794474,14.451689,17z/data=!3m1!4b1!4m6!3m5!1s0x470b953750589775:0x1466046e1a9ccf4a!8m2!3d50.0794474!4d14.451689!16s%2Fg%2F11sz2w102d?hl=cs&entry=ttu",
        "latitude": 50.0794474,
        "longitude": 14.451689
    },
    {
        "title": "Sladká tečka",
        "totalScore": 5,
        "reviewsCount": 2,
        "street": "Biskupcova 1718/40",
        "city": "Praha 3",
        "state": null,
        "countryCode": "CZ",
        "website": null,
        "phone": "+420 775 987 578",
        "categoryName": "Cukrárna",
        "url": "https://www.google.com/maps/place/Sladk%C3%A1+te%C4%8Dka/@50.0900751,14.4731495,17z/data=!3m1!4b1!4m6!3m5!1s0x470b93b442b5aaeb:0xa26cbaab3e593698!8m2!3d50.0900751!4d14.4731495!16s%2Fg%2F11sb9lbcb1?hl=cs&entry=ttu",
        "latitude": 50.0900751,
        "longitude": 14.4731495
    },
    {
        "title": "Vinohradské dorty",
        "totalScore": 5,
        "reviewsCount": 10,
        "street": "Polská 1664/15",
        "city": "Vinohrady",
        "state": null,
        "countryCode": "CZ",
        "website": "http://www.vinohradskedorty.cz/",
        "phone": null,
        "categoryName": "Cukrárna",
        "url": "https://www.google.com/maps/place/Vinohradsk%C3%A9+dorty/@50.078909,14.447322,17z/data=!3m1!4b1!4m6!3m5!1s0x470b9500727f6bdd:0xcac5de5f11a1dc88!8m2!3d50.078909!4d14.447322!16s%2Fg%2F11fj7xkxsy?hl=cs&entry=ttu",
        "latitude": 50.078909,
        "longitude": 14.447322
    },
    {
        "title": "Ovocný Světozor",
        "totalScore": 4.4,
        "reviewsCount": 1427,
        "street": "V Olšinách 1022",
        "city": "Strašnice",
        "state": null,
        "countryCode": "CZ",
        "website": "http://www.ovocnysvetozor.cz/",
        "phone": "+420 774 444 847",
        "categoryName": "Prodejna zákusků",
        "url": "https://www.google.com/maps/place/Ovocn%C3%BD+Sv%C4%9Btozor/@50.0710157,14.4843196,17z/data=!3m1!4b1!4m6!3m5!1s0x470b930da654a81d:0x5578d0341fb3e598!8m2!3d50.0710157!4d14.4843196!16s%2Fg%2F12mj7knl6?hl=cs&entry=ttu",
        "latitude": 50.0710157,
        "longitude": 14.4843196
    },
    {
        "title": "Ovocný Světozor",
        "totalScore": 3.6,
        "reviewsCount": 188,
        "street": "Vinohradská 2828/151",
        "city": "Praha 3-Žižkov",
        "state": null,
        "countryCode": "CZ",
        "website": "http://www.ovocnysvetozor.cz/",
        "phone": "+420 774 444 878",
        "categoryName": "Cukrárna",
        "url": "https://www.google.com/maps/place/Ovocn%C3%BD+Sv%C4%9Btozor/@50.0782584,14.4610952,17z/data=!3m1!4b1!4m6!3m5!1s0x470b9363a1903713:0x19ba0ef869228256!8m2!3d50.0782584!4d14.4610952!16s%2Fg%2F1ts3jy9c?hl=cs&entry=ttu",
        "latitude": 50.0782584,
        "longitude": 14.4610952
    },
    {
        "title": "Joy Bakery",
        "totalScore": 5,
        "reviewsCount": 82,
        "street": "Petrohradská 1478/41",
        "city": "Praha 10-Vršovice",
        "state": null,
        "countryCode": "CZ",
        "website": "http://www.joy-bakery.cz/",
        "phone": "+420 775 069 519",
        "categoryName": "Cukrárna",
        "url": "https://www.google.com/maps/place/Joy+Bakery/@50.0683032,14.4508018,17z/data=!3m1!4b1!4m6!3m5!1s0x470b937899336af5:0x4d38a8fe6619065!8m2!3d50.0683032!4d14.4508018!16s%2Fg%2F11ssqb1xcl?hl=cs&entry=ttu",
        "latitude": 50.0683032,
        "longitude": 14.4508018
    },
    {
        "title": "Koláčové království",
        "totalScore": 4.8,
        "reviewsCount": 191,
        "street": "28, Táborská 583",
        "city": "Praha 4-Nusle",
        "state": null,
        "countryCode": "CZ",
        "website": "http://www.kolacovekralovstvi.cz/",
        "phone": "+420 730 504 356",
        "categoryName": "Pekařství",
        "url": "https://www.google.com/maps/place/Kol%C3%A1%C4%8Dov%C3%A9+kr%C3%A1lovstv%C3%AD/@50.0618722,14.4377321,17z/data=!3m1!4b1!4m6!3m5!1s0x470b947be9d830c7:0xb842a5d26419f121!8m2!3d50.0618722!4d14.4377321!16s%2Fg%2F11d_bh0fqx?hl=cs&entry=ttu",
        "latitude": 50.0618722,
        "longitude": 14.4377321
    },
    {
        "title": "obchod se sladkostmi",
        "totalScore": null,
        "reviewsCount": 0,
        "street": "Bystrá 761/10",
        "city": "Horní Počernice",
        "state": null,
        "countryCode": "CZ",
        "website": null,
        "phone": "+31 6 37928738",
        "categoryName": "Cukrárna",
        "url": "https://www.google.com/maps/place/obchod+se+sladkostmi/@50.1149183,14.6020435,17z/data=!3m1!4b1!4m6!3m5!1s0x470bf386eb78ffc9:0x91381fcb5d459548!8m2!3d50.1149183!4d14.6020435!16s%2Fg%2F11vbrrx3xh?hl=cs&entry=ttu",
        "latitude": 50.1149183,
        "longitude": 14.6020435
    },
    {
        "title": "Castella Bistro & Cukrarna",
        "totalScore": 4.2,
        "reviewsCount": 5,
        "street": "Kodaňská 649/20",
        "city": "Praha 10-Vršovice",
        "state": null,
        "countryCode": "CZ",
        "website": "https://castella-lounge.cz/",
        "phone": "+420 777 521 181",
        "categoryName": "Francouzská cukrárna",
        "url": "https://www.google.com/maps/place/Castella+Bistro+%26+Cukrarna/@50.0707088,14.4581714,17z/data=!3m1!4b1!4m6!3m5!1s0x470b9392a16490c3:0x4c8f116da4aab545!8m2!3d50.0707088!4d14.4581714!16s%2Fg%2F11ty79zl16?hl=cs&entry=ttu",
        "latitude": 50.0707088,
        "longitude": 14.4581714
    },
    {
        "title": "U Chlupáče",
        "totalScore": 4.6,
        "reviewsCount": 51,
        "street": "Libošovická 1705/9",
        "city": "Praha 20",
        "state": null,
        "countryCode": "CZ",
        "website": null,
        "phone": null,
        "categoryName": "Vinárna",
        "url": "https://www.google.com/maps/place/U+Chlup%C3%A1%C4%8De/@50.1110891,14.6011933,17z/data=!3m1!4b1!4m6!3m5!1s0x470bf298632a3fe9:0xbdceb52372896dcf!8m2!3d50.1110891!4d14.6011933!16s%2Fg%2F11cjhzn13_?hl=cs&entry=ttu",
        "latitude": 50.1110891,
        "longitude": 14.6011933
    },
    {
        "title": "Ovocný Světozor",
        "totalScore": null,
        "reviewsCount": 0,
        "street": "Ratibořická 20/2325/36",
        "city": "Praha 20",
        "state": null,
        "countryCode": "CZ",
        "website": null,
        "phone": null,
        "categoryName": "Cukrárna",
        "url": "https://www.google.com/maps/place/Ovocn%C3%BD+Sv%C4%9Btozor/@50.1118395,14.6182569,17z/data=!3m1!4b1!4m6!3m5!1s0x470bf294c3f4ffff:0x140812fb4a14bf4c!8m2!3d50.1118395!4d14.6182569!16s%2Fg%2F11j2ynqzg0?hl=cs&entry=ttu",
        "latitude": 50.1118395,
        "longitude": 14.6182569
    },
    {
        "title": "Baštova zmrzlinárna",
        "totalScore": 4.5,
        "reviewsCount": 576,
        "street": "nám. Bratří Synků 612",
        "city": "Praha 4-Nusle",
        "state": null,
        "countryCode": "CZ",
        "website": "http://www.bastovazmrzlina.cz/",
        "phone": "+420 739 041 133",
        "categoryName": "Prodejna zákusků",
        "url": "https://www.google.com/maps/place/Ba%C5%A1tova+zmrzlin%C3%A1rna/@50.0641278,14.4404745,17z/data=!3m1!4b1!4m6!3m5!1s0x470b947e9f6bee91:0x51c163d3b85c842a!8m2!3d50.0641278!4d14.4404745!16s%2Fg%2F11b_2t03jz?hl=cs&entry=ttu",
        "latitude": 50.0641278,
        "longitude": 14.4404745
    },
    {
        "title": "Kavárna Sladký Život",
        "totalScore": 4.7,
        "reviewsCount": 143,
        "street": "Na Pískách 1256/39",
        "city": "Praha 6-Dejvice",
        "state": null,
        "countryCode": "CZ",
        "website": "https://sladkyzivot.cafe/?utm_source=gmb&utm_medium=referral",
        "phone": "+420 602 728 266",
        "categoryName": "Kavárna / Čajovna",
        "url": "https://www.google.com/maps/place/Kav%C3%A1rna+Sladk%C3%BD+%C5%BDivot/@50.1059,14.3731893,17z/data=!3m1!4b1!4m6!3m5!1s0x470b9506d997e2bb:0x795743b003ce8631!8m2!3d50.1059!4d14.3731893!16s%2Fg%2F11h5v4_zs4?hl=cs&entry=ttu",
        "latitude": 50.1059,
        "longitude": 14.3731893
    },
    {
        "title": "Café Globus",
        "totalScore": 4,
        "reviewsCount": 79,
        "street": "Kostelecká 823/77",
        "city": "Praha-Čakovice",
        "state": null,
        "countryCode": "CZ",
        "website": "https://www.globus.cz/praha-cakovice/nabidka/cafe-globus.html?y_source=1_MTYyODI4ODktNzE1LWxvY2F0aW9uLndlYnNpdGU%3D",
        "phone": "+420 800 241 242",
        "categoryName": "Samoobslužná jídelna",
        "url": "https://www.google.com/maps/place/Caf%C3%A9+Globus/@50.1508526,14.5065883,17z/data=!3m1!4b1!4m6!3m5!1s0x470bedf450d24177:0x785bed153b78e247!8m2!3d50.1508526!4d14.5065883!16s%2Fg%2F11h3m7knyt?hl=cs&entry=ttu",
        "latitude": 50.1508526,
        "longitude": 14.5065883
    },
    {
        "title": "Síma Peče Sladkosti",
        "totalScore": 4.5,
        "reviewsCount": 16,
        "street": "Hrozenkovská 52",
        "city": "Praha 5",
        "state": null,
        "countryCode": "CZ",
        "website": "http://www.simapecesladkosti.cz/",
        "phone": "+420 608 818 545",
        "categoryName": "Cukrárna",
        "url": "https://www.google.com/maps/place/S%C3%ADma+Pe%C4%8De+Sladkosti/@50.0599794,14.2940764,17z/data=!3m1!4b1!4m6!3m5!1s0x470bbe6c77217e31:0x429fabe172050d7!8m2!3d50.0599794!4d14.2940764!16s%2Fg%2F11hzv5v0bf?hl=cs&entry=ttu",
        "latitude": 50.0599794,
        "longitude": 14.2940764
    },
    {
        "title": "Be-nice cake",
        "totalScore": 5,
        "reviewsCount": 1,
        "street": "Okrasná",
        "city": "Praha-Benice",
        "state": null,
        "countryCode": "CZ",
        "website": null,
        "phone": "+420 602 107 500",
        "categoryName": "Cukrárna",
        "url": "https://www.google.com/maps/place/Be-nice+cake/@50.0126391,14.5999264,17z/data=!3m1!4b1!4m6!3m5!1s0x470b8d98512d9237:0xf6cc3a3bc3fa9eb!8m2!3d50.0126391!4d14.5999264!16s%2Fg%2F11rn8brmhq?hl=cs&entry=ttu",
        "latitude": 50.0126391,
        "longitude": 14.5999264
    },
    {
        "title": "Dorty Božská",
        "totalScore": null,
        "reviewsCount": 0,
        "street": "Hořanská 1513/4",
        "city": "Praha 3-Žižkov",
        "state": null,
        "countryCode": "CZ",
        "website": "http://www.dorty-bozska.cz/",
        "phone": "+420 607 554 035",
        "categoryName": "Cukrárna",
        "url": "https://www.google.com/maps/place/Dorty+Bo%C5%BEsk%C3%A1/@50.0907515,14.4796119,17z/data=!3m1!4b1!4m6!3m5!1s0x470b937f30aada9d:0xd1c0c25a84716548!8m2!3d50.0907515!4d14.4796119!16s%2Fg%2F11hzvcv71h?hl=cs&entry=ttu",
        "latitude": 50.0907515,
        "longitude": 14.4796119
    },
    {
        "title": "Sladky hrad",
        "totalScore": 5,
        "reviewsCount": 1,
        "street": "Freyova 983/25",
        "city": "Praha 9",
        "state": null,
        "countryCode": "CZ",
        "website": "http://sladkyhrad.cz/",
        "phone": "+420 776 321 672",
        "categoryName": "Cukrárna",
        "url": "https://www.google.com/maps/place/Sladky+hrad/@50.1053168,14.5019662,17z/data=!3m1!4b1!4m6!3m5!1s0x470bede56e01ba7f:0xe13a12a14db1a08e!8m2!3d50.1053168!4d14.5019662!16s%2Fg%2F11ftjnrdb6?hl=cs&entry=ttu",
        "latitude": 50.1053168,
        "longitude": 14.5019662
    },
    {
        "title": "Dortiris - Dortové studio",
        "totalScore": 4.8,
        "reviewsCount": 4,
        "street": "Kuželova 574",
        "city": "Praha 18",
        "state": null,
        "countryCode": "CZ",
        "website": "https://dortiris.webnode.cz/",
        "phone": "+420 777 033 251",
        "categoryName": "Cukrárna",
        "url": "https://www.google.com/maps/place/Dortiris+-+Dortov%C3%A9+studio/@50.1408566,14.5097735,17z/data=!3m1!4b1!4m6!3m5!1s0x470bed8fe89950b3:0xf5e652aad4060e38!8m2!3d50.1408566!4d14.5097735!16s%2Fg%2F11m8wm95c_?hl=cs&entry=ttu",
        "latitude": 50.1408566,
        "longitude": 14.5097735
    },
    {
        "title": "Dorty z Bifé",
        "totalScore": null,
        "reviewsCount": 0,
        "street": "Vodní 544/4",
        "city": "Praha 5-Smíchov",
        "state": null,
        "countryCode": "CZ",
        "website": "http://dortyzbife.cz/",
        "phone": null,
        "categoryName": "Cukrárna",
        "url": "https://www.google.com/maps/place/Dorty+z+Bif%C3%A9/@50.0785575,14.4075496,17z/data=!3m1!4b1!4m6!3m5!1s0x470b952796b74c61:0xf9ac5530a1c67daf!8m2!3d50.0785575!4d14.4075496!16s%2Fg%2F11td3g_6s5?hl=cs&entry=ttu",
        "latitude": 50.0785575,
        "longitude": 14.4075496
    },
    {
        "title": "SiCAKE - Svět Dortů OC Nový Smíchov",
        "totalScore": 3.9,
        "reviewsCount": 7,
        "street": "Plzeňská 8",
        "city": "Praha 5-Anděl",
        "state": null,
        "countryCode": "CZ",
        "website": "http://www.sicake.cz/",
        "phone": "+420 724 363 933",
        "categoryName": "Cukrárna",
        "url": "https://www.google.com/maps/place/SiCAKE+-+Sv%C4%9Bt+Dort%C5%AF+OC+Nov%C3%BD+Sm%C3%ADchov/@50.0731616,14.4022526,17z/data=!3m1!4b1!4m6!3m5!1s0x470b95cc35f53035:0xd2df014304e20443!8m2!3d50.0731616!4d14.4022526!16s%2Fg%2F11hst2mmf6?hl=cs&entry=ttu",
        "latitude": 50.0731616,
        "longitude": 14.4022526
    }
]